시도,주차장명,주차장유형 (노상/노외/부설),주소,위도,경도,관리기관,전화번호 (주차장관리자),"'18.9.22(토), 개방시작시간","'18.9.22(토), 개방종료시간","18.9.23(일), 개방시작시간","18.9.23(일), 개방종료시간","18.9.24(월), 개방시작시간","18.9.24(월), 개방종료시간","18.9.25(화), 개방시작시간","18.9.25(화), 개방종료시간","18.9.26(수), 개방시작시간","18.9.26(수), 개방종료시간",특이사항,
강원도,강동초등학교,노상,강원도 강릉시 강동면 단경길 20,37.725,128.963,강동초등학교,033-645-7268,09:00,17:00,09:00,17:00,09:00,17:00,09:00,17:00,09:00,17:00,,
강원도,강릉초등학교,노상,강원도 강릉시 토성로 103,37.451,128.532,강릉초등학교,033-650-2610,09:00,17:00,09:00,17:00,09:00,17:00,09:00,17:00,09:00,17:00,,
강원도,성덕초등학교,부설,강원도 강릉시 용지로 60,0.000,0.000,성덕초,033-640-4193,12:00,24:00,00:00,24:00,00:00,24:00,00:00,24:00,00:00,18:00,,
강원도,송양초등학교,노외,강원도 강릉시 성산면 위촌길 198,37.759,128.847,송양초등학교,033-644-8990,00:00,24:00,00:00,24:00,00:00,24:00,00:00,24:00,00:00,24:00,,
강원도,신영초등학교,노상,강원도 강릉시 주문북로160,37.907,128.822,신영초등학교,033-660-6091,00:00,24:00,00:00,24:00,00:00,24:00,00:00,24:00,00:00,24:00,,
강원도,신왕초등학교,부설,강원도 강릉시 연곡면 진고개로 2265-11,37.000,128.000,신왕초등학교 행정실,033-660-7555,00:00,24:00,00:00,24:00,00:00,24:00,00:00,24:00,00:00,24:00,,
강원도,옥계초등학교,노상,강원도 강릉시 옥계면 옥계로 1074,0.000,0.000,옥계초등학교,033-534-0026,00:00,24:00,00:00,24:00,00:00,24:00,00:00,24:00,00:00,24:00,,
강원도,옥천초등학교,노상,강원도 강릉시 수문길25,37.763,128.902,옥천초등학교,033-650-6800,00:00,24:00,00:00,24:00,00:00,24:00,00:00,24:00,00:00,24:00,,
강원도,옥천초등학교운산분교장,노상,강원도 강릉시 운산길 79-15,37.731,128.937,옥천초등학교운산분교장,033-645-9200,00:00,24:00,00:00,24:00,00:00,24:00,00:00,24:00,00:00,24:00,,
강원도,율곡초등학교,노상,강원도 강릉시 원대로 129,37.767,128.882,율곡초등학교,033-650-8600,00:00,24:00,00:00,24:00,00:00,24:00,00:00,24:00,00:00,24:00,,
강원도,중앙초등학교,부설,강원도 강릉시 성덕포남로18,37.750,128.920,중앙초,033-650-8453,00:00,24:00,00:00,24:00,00:00,24:00,00:00,24:00,00:00,24:00,,
강원도,포남초등학교,부설,강원도 강릉시 가작로 287번길 20,0.000,0.000,포남초등학교,033-610-1000,09:00,18:00,09:00,18:00,09:00,18:00,09:00,18:00,09:00,18:00,,
강원도,한솔초등학교,노상,강원도 강릉시 하평2길 45,37.774,128.914,한솔초등학교,033-650-4292,08:00,24:00,00:00,24:00,00:00,24:00,00:00,24:00,00:00,18:00,,
강원도,강릉중학교,노상,강원도 강릉시 강중길44번길 8,37.754,128.910,강릉중학교,033-650-6000,10:00,24:00,00:00,24:00,00:00,24:00,00:00,24:00,00:00,16:00,,
강원도,강릉해람중학교,노상,강원도 강릉시 명주로25,0.000,0.000,강릉해람중학교,033-650-5000,06:00,24:00,00:00,24:00,00:00,24:00,00:00,24:00,00:00,24:00,,
강원도,관동중학교,노상,강원도 강릉시 하슬라로 20번길 14,37.758,128.880,관동중학교,033-650-4655,00:00,24:00,00:00,24:00,00:00,24:00,00:00,24:00,00:00,18:00,,
강원도,동명중학교,부설,강원도 강릉시 보래미하길79번길 21,0.000,0.000,동명중학교,033-610-8802,00:00,24:00,00:00,24:00,00:00,24:00,00:00,24:00,00:00,24:00,,
강원도,솔올중학교,노상,강원돈 강릉시 솔올로 102,0.000,0.000,솔올중학교,033-660-2100,09:00,18:00,09:00,18:00,09:00,18:00,09:00,18:00,09:00,18:00,,
강원도,율곡중학교,부설,강원도 강릉시 가작로 125,37.770,128.880,율곡중학교,033-610-5200,00:00,24:00,00:00,24:00,00:00,24:00,00:00,24:00,00:00,24:00,,
강원도,하슬라중학교,노상,강원도 강릉시 보래미길 9,0.000,0.000,하슬라중학교,033-660-8800,00:00,24:00,00:00,24:00,00:00,24:00,00:00,24:00,00:00,24:00,,
강원도,강릉고등학교,부설,"강원도 강릉시 강릉대로 587번길 68, 강릉고등학교",0.000,0.000,강릉고등학교,033-650-5108,00:00,24:00,00:00,24:00,00:00,24:00,00:00,24:00,00:00,24:00,,
강원도,강릉여자고등학교,노상,강원도 강릉시 용지로 107,0.000,0.000,강릉여자고등학교,033-650-9900,00:00,24:00,00:00,24:00,00:00,24:00,00:00,24:00,00:00,24:00,,
강원도,강릉중앙고등학교,노상,강원도 강릉시 강변로 422,37.757,128.914,강릉중앙고등학교,033-610-6600,07:00,22:00,07:00,22:00,07:00,22:00,07:00,22:00,07:00,18:00,,
강원도,주문진고등학교,노상,강원도 강릉시 주문진읍 학교길 28,37.881,128.830,주문진고등학교,033-660-7007,00:00,24:00,00:00,24:00,00:00,24:00,00:00,24:00,00:00,24:00,,
강원도,강릉명륜고등학교,노상,강원도 강릉시 율곡로 2920-8,0.000,0.000,강릉명륜고등학교,033-650-4533,00:00,24:00,00:00,24:00,00:00,24:00,00:00,24:00,00:00,18:00,,
강원도,강릉오성학교,노상,강원도 강릉시 송정길 43,37.780,128.932,강릉오성학교,033-820-5099,00:00,24:00,00:00,24:00,00:00,24:00,00:00,24:00,00:00,24:00,,
강원도,강릉교육문화관,노상,강원도 강릉시 노암등길 37-1,37.748,128.900,강릉교육문화관,033-640-9960,18:00,24:00,00:00,24:00,00:00,24:00,00:00,24:00,00:00,24:00,,
강원도,강원도교육연수원,노상,강원도 강릉시 강릉대로 587번길 42,0.000,0.000,강원도교육연수원,033-640-9544,00:00,24:00,00:00,24:00,00:00,24:00,00:00,24:00,00:00,24:00,,
강원도,강원도교육연수원,노상,강원도 강릉시 공항길 20번길 52-1,0.000,0.000,강원도교육연수원,033-640-9545,00:00,24:00,00:00,24:00,00:00,24:00,00:00,24:00,00:00,24:00,,
강원도,명주교육도서관,노상,강원도 강릉시 주문진읍 해안3길11,37.886,128.829,명주교육도서관,033-660-6905,08:30,23:00,00:00,24:00,00:00,24:00,00:00,24:00,00:00,24:00,9.22.(토) 개관일.,
강원도,거성초등학교,부설,강원도 고성군 거진읍 거성길38,38.452,128.457,거성초등학교,033-682-3570,00:00,24:00,00:00,24:00,00:00,24:00,00:00,24:00,00:00,24:00,,
강원도,공현진초등학교,노외,강원도 고성군 공현진한옥길49,38.355,128.508,공현진초등학교,033-632-9460,00:00,24:00,00:00,24:00,00:00,24:00,00:00,24:00,00:00,24:00,,
강원도,광산초등학교,노상,강원도 고성군 간성읍 진부령로 2427,38.375,128.413,광산초,033-681-0657,00:00,24:00,00:00,24:00,00:00,24:00,00:00,24:00,00:00,24:00,,
강원도,아야진초등학교,노상,강원도 고성군 토성면 아야진길15,38.274,128.549,아야진초등학교,"033-631-2753,",07:00,24:00,00:00,24:00,00:00,24:00,00:00,24:00,00:00,24:00,,
강원도,인흥초등학교,노상,강원도 고성군 토성면 인흥1길 26,38.237,128.551,인흥초등학교,033-636-5182,09:00,24:00,09:00,24:00,09:00,24:00,09:00,24:00,09:00,24:00,,
강원도,천진초등학교,노상,강원도 고성군 토성면 천진1길 14,38.257,128.557,천진초등학교,033-639-0400,00:00,24:00,00:00,24:00,00:00,24:00,00:00,24:00,00:00,24:00,,
강원도,대진중학교,부설,강원도 고성군 현내면 화진포길476,38.484,128.433,대진중학교,033-680-6613,05:00,21:00,05:00,21:00,05:00,21:00,05:00,21:00,05:00,21:00,,
강원도,거진정보공업고등학교,부설,강원도 고성군 거진읍 거탄진로 39-7,38.440,128.451,거진정보공업고등학교,033-680-1704,09:00,24:00,09:00,24:00,09:00,24:00,09:00,24:00,09:00,24:00,,
강원도,대진고등학교,부설,강원도 고성군 현내면 화진포길476,38.484,128.433,대진고등학교,033-680-6613,05:00,21:00,05:00,21:00,05:00,21:00,05:00,21:00,05:00,21:00,,
강원도,고성교육지원청,노상,강원도 고성군 간성읍 간성로80,38.381,128.466,고성교육지원청,033-680-6064,00:00,24:00,00:00,24:00,00:00,24:00,00:00,24:00,00:00,24:00,,
강원도,고성교육도서관,부설,강원도 고성군 거진읍 거탄진로29번길 7,38.262,128.270,고성교육도서관,033-682-4886,18:00,09:00,00:00,24:00,00:00,24:00,00:00,24:00,00:00,24:00,,
강원도,"동광중,동광산업과학고등학교",노상,강원도 고성군 토성면 백촌리 30-15,,,동광중.동광산업과학고등학교,033-630-3206,00:00,24:00,00:00,24:00,00:00,24:00,00:00,24:00,00:00,24:00,,
강원도,남호초등학교,노상,강원도 동해시 평원로 120,37.534,129.113,남호초등학교,033-530-7800,00:00,24:00,00:00,24:00,00:00,24:00,00:00,24:00,00:00,24:00,,
강원도,동호초등학교,노상,강원도 동해시 발한로 123,37.545,129.100,동호초등학교,033-530-7408,00:00,24:00,00:00,24:00,00:00,24:00,00:00,24:00,00:00,24:00,,
강원도,망상초등학교,노외,강원도 동해시 동해대로 6251,0.000,0.000,망상초등학교,033-530-3520,14:00,24:00,00:00,24:00,00:00,24:00,00:00,24:00,00:00,24:00,,
강원도,묵호초등학교,노상,강원도 동해시 발한천길30,37.598,129.079,묵호초등학교,033-539-1522,09:00,18:00,09:00,18:00,09:00,18:00,09:00,18:00,09:00,18:00,,
강원도,삼화초등학교,노상,강원도 동해시 파수길 38,37.293,129.040,삼화초등학교,033-530-6973,09:00,24:00,00:00,24:00,00:00,24:00,00:00,24:00,00:00,24:00,,
강원도,청운초등학교,부설,강원도 동해시 청운로 60,0.000,0.000,청운초등학교,033-820-2007,09:00,24:00,09:00,24:00,09:00,24:00,09:00,24:00,09:00,24:00,,
강원도,북평중학교,부설,강원도 동해시 용정로 40-7,37.498,129.116,북평중학교,033-521-1290,09:00,18:00,09:00,18:00,09:00,18:00,09:00,18:00,09:00,18:00,,
강원도,동해광희중학교,노상,강원도 동해시 청운로 112,37.190,129.103,동해광희중학교,033-520-0802,00:00,24:00,00:00,24:00,00:00,24:00,00:00,24:00,00:00,24:00,,
강원도,동해광희고등학교,부설,강원도 동해시 청운로 112,37.491,129.103,동해광희고등학교,033-520-0704,09:00,18:00,09:00,18:00,09:00,18:00,09:00,18:00,09:00,18:00,,
강원도,동해교육지원청,노외,강원도 동해시 천곡로 117,37.526,129.117,동해교육지원청,033-530-3064,00:00,24:00,00:00,24:00,00:00,24:00,00:00,24:00,00:00,24:00,,
강원도,동해교육도서관,노상,강원도 동해시 부곡5길 22,37.539,129.111,동해교육도서관,033-533-4439,18:00,24:00,00:00,24:00,00:00,24:00,00:00,24:00,00:00,24:00,,
강원도,근덕초등학교,노상,강원도 삼척시 근덕면 삼척로 3653,37.224,129.134,근덕초등학교,033-572-3007,09:00,17:00,09:00,17:00,09:00,17:00,09:00,17:00,09:00,17:00,,
강원도,미로초등학교,부설,강원도 삼척시 미로면 미로강변로1길 10-11,0.000,0.000,미로초 행정실,033-570-0811,00:00,24:00,00:00,24:00,00:00,24:00,00:00,24:00,00:00,24:00,,
강원도,삼척남초등학교,노외,강원도 삼척시 동해대로 3783-22(오분동),37.424,129.188,삼척남초등학교,033-572-8765,00:00,24:00,00:00,24:00,00:00,24:00,00:00,24:00,00:00,24:00,,
강원도,삼척중앙초등학교,노외,강원도 삼척시 새천년도로 630-121,0.000,0.000,삼척중앙초등학교,033-570-7000,00:00,24:00,00:00,24:00,00:00,24:00,00:00,24:00,00:00,24:00,,
강원도,삼척초등학교,노상,강원도 삼척시 교동로,0.000,0.000,삼척초등학교,033-572-8663,08:00,24:00,00:00,24:00,00:00,24:00,00:00,24:00,00:00,18:00,,
강원도,서부초등학교,노외,강원도 삼척시 오십천로 279,0.000,0.000,서부초등학교,033-574-4009,00:00,24:00,00:00,24:00,00:00,24:00,00:00,24:00,00:00,24:00,,
강원도,소달초등학교,노상,강원도 삼척시 도계읍 소달길 54-30,0.000,0.000,소달초등학교,033-541-0150,00:00,24:00,00:00,24:00,00:00,24:00,00:00,24:00,00:00,24:00,,
강원도,오저초등학교,부설,강원도 삼척시 가곡면 가곡천로  1430,37.147,129.207,오저초등학교,033-573-7048,00:00,24:00,00:00,24:00,00:00,24:00,00:00,24:00,00:00,24:00,,
강원도,임원초등학교,노상,강원도 삼척시 원덕읍 삼척로 1246,37.236,129.342,임원초등학교,,09:00,18:00,09:00,18:00,09:00,18:00,09:00,18:00,09:00,18:00,,
강원도,장원초등학교,노상,강원도 삼척시 도계읍 장원길25,0.000,0.000,장원초등학교,033-541-4418,00:00,24:00,00:00,24:00,00:00,24:00,00:00,24:00,00:00,18:00,,
강원도,장호초등학교,노상,강원도 삼척시 근덕면 용화안길24,0.000,0.000,장호초등학교,033-572-8704,00:00,24:00,00:00,24:00,00:00,24:00,00:00,24:00,00:00,24:00,,
강원도,호산초등학교,부설,강원도 삼척시 삼척로 46-12,37.178,129.335,호산초등학교,033-572-6102,09:00,17:00,09:00,17:00,09:00,17:00,09:00,17:00,09:00,17:00,,
강원도,도계중학교,부설,강원도 삼척시 도계읍 도계느티로 15,37.136,129.255,도계중학교,033-541-0012,00:00,24:00,00:00,24:00,00:00,24:00,00:00,24:00,00:00,24:00,,
강원도,미로중학교,노상,강원도 삼척시 강원남부로 3907,37.410,129.104,미로중학교,033-572-0057,09:00,24:00,09:00,24:00,09:00,24:00,09:00,24:00,09:00,24:00,,
강원도,삼척여자중학교,노외,강원도 삼척시 당저동 96,37.446,129.161,삼척여자중학교,033-573-0131,08:00,24:00,00:00,24:00,00:00,24:00,00:00,24:00,00:00,18:00,,
강원도,원덕중학교,노외,강원도 삼척시 원덕읍 삼척로480,0.000,0.000,원덕고등학교,033-571-5212,08:30,24:00,08:30,24:00,08:30,24:00,08:30,24:00,08:30,22:00,,
강원도,가곡고등학교,노외,강원도 삼척시 가곡면 가곡천로 1427,37.147,129.206,가곡중학교,033-570-6922,00:00,24:00,00:00,24:00,00:00,24:00,00:00,24:00,00:00,24:00,,
강원도,가곡고등학교,노외,강원도 삼척시 가곡면 가곡천로 1427,37.147,129.206,가곡고등학교,033-570-6922,00:00,24:00,00:00,24:00,00:00,24:00,00:00,24:00,00:00,24:00,,
강원도,삼척고등학교,부설,강원도 삼척시 사대안길 21,37.446,129.165,삼척고등학교,033-570-8900,06:00,24:00,06:00,24:00,06:00,24:00,06:00,24:00,06:00,24:00,,
강원도,삼척마이스터고등학교,노외,강원도 삼척시 근덕면삼척로3700,37.385,129.224,삼척마이스터고,,00:00,24:00,00:00,24:00,00:00,24:00,00:00,24:00,00:00,24:00,,
강원도,삼척여자고등학교,노상,강원도 삼척시 남산길 6,37.437,129.165,삼척여자고등학교,033-570-8700,09:00,18:00,09:00,18:00,09:00,18:00,09:00,18:00,09:00,18:00,,
강원도,삼척교육문화관,노상,강원도 삼척시 진주로 48-41,0.000,0.000,삼척교육문화관,033-570-5503,08:30,08:00,08:30,08:00,08:30,08:00,08:30,08:00,08:30,08:00,오전 30분간만 폐쇄,
강원도,삼척교육지원청,노상,강원도 삼척시 청석로3길 32,37.450,129.177,삼척교육지원청,033-570-5157,00:00,24:00,00:00,24:00,00:00,24:00,00:00,24:00,00:00,24:00,,
강원도,교동초등학교,노상,강원도 속초시 만천1길 67,38.203,128.000,교동초등학교,033-637-7227,00:00,24:00,00:00,24:00,00:00,24:00,00:00,24:00,00:00,24:00,,
강원도,대포초등학교,노상,강원도 속초시 동해대로 3797,38.174,128.604,대포초등학교,033-635-3840,12:00,24:00,00:00,24:00,00:00,24:00,00:00,24:00,00:00,18:00,,
강원도,설악초등학교,노상,강원도 속초시 청봉로 51,38.164,128.540,설악초등학교,033-636-7052,00:00,24:00,00:00,24:00,00:00,24:00,00:00,24:00,00:00,24:00,,
강원도,속초초등학교,노상,강원도 속초시 수복로 117,38.202,128.582,속초초등학교,033-638-8873,00:00,24:00,00:00,24:00,00:00,24:00,00:00,24:00,00:00,24:00,,
강원도,영랑초등학교,노상,"강원도 속초시 중앙로 331,",0.000,0.000,영랑초등학교,033-639-7888,12:00,24:00,00:00,24:00,00:00,24:00,00:00,24:00,00:00,18:00,,
강원도,온정초등학교,노상,강원도 속초시 온천로 107,0.000,0.000,속초양양교육지원청,,09:00,24:00,00:00,24:00,00:00,24:00,00:00,24:00,00:00,24:00,,
강원도,조양초등학교,노상,강원도 속초시 동해대로 3965,38.190,128.598,조양초등학교,033-636-3380,00:00,24:00,00:00,24:00,00:00,24:00,00:00,24:00,00:00,24:00,,
강원도,청대초등학교,노상,강원도 속초시 소평로 175,0.000,0.000,청대초등학교,033-639-9007,00:00,24:00,00:00,24:00,00:00,24:00,00:00,24:00,00:00,24:00,,
강원도,청봉초등학교,부설,강원도 속초시 조양로 118번길 9,0.000,0.000,청봉초등학교,033-630-7500,00:00,24:00,00:00,24:00,00:00,24:00,00:00,24:00,00:00,20:00,,
강원도,청호초등학교,노상,강원도 속초시 청호로 60,38.196,128.598,청호초등학교,033-636-8746,08:00,18:00,08:00,18:00,08:00,18:00,08:00,18:00,08:00,18:00,,
강원도,설악중학교,노상,강원도 속초시 미시령로 3402,0.000,0.000,설악중학교,033-633-4992,00:00,24:00,00:00,24:00,00:00,24:00,00:00,24:00,00:00,24:00,,
강원도,속초여자중학교,부설,강원도 속초시 번영로 81,38.207,128.585,속초여자중학교,033-630-8500,00:00,24:00,00:00,24:00,00:00,24:00,00:00,24:00,00:00,24:00,,
강원도,속초중학교,노상,강원도 속초시 미시령로 3358(교동),38.205,128.574,속초중학교,033-637-4986,00:00,24:00,00:00,24:00,00:00,24:00,00:00,24:00,00:00,24:00,,
강원도,속초고등학교,노외,강원도 속초시 사진용촌길42,38.226,128.584,속초고등학교,033-634-6006,00:00,24:00,00:00,24:00,00:00,24:00,00:00,24:00,00:00,24:00,,
강원도,속초양양교육지원청,노외,강원도 속초시 미시령로 3336,38.205,128.572,속초양양교육지원청,033-639-6000,00:00,24:00,00:00,24:00,00:00,24:00,00:00,24:00,00:00,24:00,,
강원도,도촌초등학교,노상,강원도 양구군 남면 정중앙로 259,38.080,128.020,도촌초등학교,033-482-0803,09:00,17:00,09:00,17:00,09:00,17:00,09:00,17:00,09:00,17:00,,
강원도,방산초등학교,노상,강원도 양구군 방산면 평화로 5121-7,38.209,127.944,방산초등학교,033-481-5907,00:00,24:00,00:00,24:00,00:00,24:00,00:00,24:00,00:00,24:00,,
강원도,양구초등학교,노상,"강원도 양구군,읍 양구새싹로 48",38.000,127.000,양구초,,09:00,09:00,09:00,09:00,09:00,09:00,09:00,09:00,09:00,09:00,관리자없음,
강원도,임당초등학교,노상,강원도 양구군 동면 금강산로 1673,38.202,128.043,임당초등학교,033-481-0006,00:00,24:00,00:00,24:00,00:00,24:00,00:00,24:00,00:00,24:00,,
강원도,양구여자중학교,부설,강원도 양구군 양구읍 박수근로 327,38.101,127.981,양구여자중학교,033-480-1610,00:00,24:00,00:00,24:00,00:00,24:00,00:00,24:00,00:00,24:00,,
강원도,해안중학교,노상,강원도 양구군 해안면 펀치볼로1279,0.000,0.000,해안중학교,033-480-1712,00:00,24:00,00:00,24:00,00:00,24:00,00:00,24:00,00:00,24:00,,
강원도,양구여자고등학교,부설,강원도 양구군 양구읍 박수근로 327,38.101,127.981,양구여자고등학교,033-480-1610,00:00,24:00,00:00,24:00,00:00,24:00,00:00,24:00,00:00,24:00,,
강원도,강현초등학교,노상,강원도 양양군 강현면 진미로12번길 22,38.150,128.604,강현초등학교,033-670-9007,00:00,24:00,00:00,24:00,00:00,24:00,00:00,24:00,00:00,24:00,,
강원도,광정초등학교,노상,강원도 양양군 현북면 하조대 1길 38,0.000,0.000,광정초등학교,,00:00,24:00,00:00,24:00,00:00,24:00,00:00,24:00,00:00,24:00,,
강원도,상평초등학교,노상,강원도 양양군 서면 물윗구미길 25,38.073,128.586,상평초등학교,033-672-2982,09:00,18:00,09:00,18:00,09:00,18:00,09:00,18:00,09:00,18:00,,
강원도,상평초공수전분교,노상,강원도 양양군 서면 구룡령로 2855,38.042,128.558,상평초공수전분교,033-673-3368,09:00,18:00,09:00,18:00,09:00,18:00,09:00,18:00,09:00,18:00,,
강원도,상평초현서분교,노상,강원도 양양군 서면 구룡령로 2155,37.988,128.530,상평초현서분교,033-673-8764,09:00,18:00,09:00,18:00,09:00,18:00,09:00,18:00,09:00,18:00,,
강원도,양양초등학교,노상,강원도 양양군 양양읍 군청길 39,38.078,128.621,양양초등학교,033-671-2834,00:00,24:00,00:00,24:00,00:00,24:00,00:00,24:00,00:00,24:00,,
강원도,조산초등학교,노상,강원도 양양군 양양읍 동해로 3020,0.000,0.000,조산초등학교,033-670-9804,09:00,24:00,00:00,24:00,00:00,24:00,00:00,24:00,00:00,18:00,,
강원도,현북초등학교,부설,강원도 양양군 현북면 송이로 222,38.016,128.697,현북초등학교,033-672-8714,12:00,24:00,00:00,24:00,00:00,24:00,00:00,24:00,00:00,17:00,,
강원도,현성초등학교,노상,강원도 양양군 현북면 어성전로 114,37.952,128.665,현성초등학교,033-673-8273,00:00,24:00,00:00,24:00,00:00,24:00,00:00,24:00,00:00,24:00,주차장 관리자 없음,
강원도,양양고등학교,노상,강원도 양양군 양양읍 복개길 23-12,38.072,128.617,양양고등학교,,09:00,17:00,09:00,17:00,09:00,17:00,09:00,17:00,09:00,17:00,,
강원도,강원외국어교육원(부서),부설,강원도 양양군 손양면 선사유적로 840,38.099,128.653,강원외국어교육원,033-670-1505,00:00,24:00,00:00,24:00,00:00,24:00,00:00,24:00,00:00,24:00,,
강원도,쌍룡초등학교,노외,강원도 영월군 한반도면 무동길 50,37.178,128.320,쌍룡초등학교,033-372-5030,00:00,24:00,00:00,24:00,00:00,24:00,00:00,24:00,00:00,24:00,,
강원도,쌍룡초등학교토교분교,노외,강원도 영월군 남면 토교로 301,37.160,128.309,토교분교,033-374-8183,00:00,24:00,00:00,24:00,00:00,24:00,00:00,24:00,00:00,24:00,,
강원도,영월초등학교,부설,강원도 영월군 영월읍 하송안길 100,37.182,128.469,영월초등학교,033-370-300,00:00,24:00,00:00,24:00,00:00,24:00,00:00,24:00,00:00,24:00,,
강원도,청령포초등학교,노외,강원도 영월군 영월읍 청령포로 191,37.181,128.441,청령포초등학교,033-374-8454,00:00,24:00,00:00,24:00,00:00,24:00,00:00,24:00,00:00,24:00,,
강원도,연당중학교,노상,강원도 영월군 남면 연당로 101-8,37.188,128.407,연당중학교,033-372-4006,00:00,24:00,00:00,24:00,00:00,24:00,00:00,24:00,00:00,24:00,,
강원도,석정여자중학교,부설,강원도 영월군 영월읍 영월로 1914-11,0.000,0.000,석정여자중학교,,00:00,24:00,00:00,24:00,00:00,24:00,00:00,24:00,00:00,24:00,관리자 없음,
강원도,마차고등학교,부설,강원도 영월군 북면 문학로길 25-8,37.255,128.451,마차고등학교,033-372-3971,00:00,24:00,00:00,24:00,00:00,24:00,00:00,24:00,00:00,24:00,,
강원도,상동중학교,부설,강원도 영월군 상동읍 태백산로 3147,37.125,128.823,상동중학교,033-378-2517,00:00,24:00,00:00,24:00,00:00,24:00,00:00,24:00,00:00,16:30,,
강원도,상동중학교,부설,강원도 영월군 상동읍 태백산로 3147,37.125,128.821,상동중학교,033-378-2517,00:00,24:00,00:00,24:00,00:00,24:00,00:00,24:00,00:00,16:30,,
강원도,석정여자고등학교,노외,강원도 영월군 영월읍 영월로 1914-11,37.180,128.459,석정여자고등학교,033-370-4444,08:00,24:00,00:00,24:00,00:00,24:00,00:00,24:00,00:00,18:00,,
강원도,영월교육도서관,부설,강원도 영월군.읍 영월로 1914-7,0.000,0.000,영월교육도서관,033-373-9315,00:00,24:00,00:00,24:00,00:00,24:00,00:00,24:00,00:00,24:00,9.22일 개방안함,
강원도,관설초등학교,노상,강원도 원주시 치악로 1355,37.309,127.976,관설초등학교,033-761-5644,00:00,24:00,00:00,24:00,00:00,24:00,00:00,24:00,00:00,24:00,,
강원도,교동초등학교,노외,강원도 원주시 명륜로9,37.338,127.947,교동초등학교,033-764-1072,08:00,18:00,08:00,18:00,08:00,18:00,08:00,18:00,08:00,18:00,,
강원도,귀래초등학교,부설,강원도 원주시 귀래면 북원로 89,0.000,0.000,귀래초등학교,033-762-7220,09:00,18:00,09:00,18:00,09:00,18:00,09:00,18:00,09:00,18:00,,
강원도,금대초등학교,부설,강원도 원주시 판부면 금대길 10,37.289,127.997,금대초등학교,033-762-7847,09:00,24:00,00:00,24:00,00:00,24:00,00:00,24:00,00:00,18:00,,
강원도,단구초등학교,노상,강원도 원주시 단구초교길5,0.000,0.000,단구초등학교,033-765-0491,09:00,20:00,09:00,20:00,09:00,20:00,09:00,20:00,09:00,20:00,,
강원도,둔둔초등학교,노외,강원도 원주시 소초면 버덩마을길7,37.446,127.979,둔둔초등학교,033-747-7592,00:00,24:00,00:00,24:00,00:00,24:00,00:00,24:00,00:00,24:00,,
강원도,만대초등학교,노상,강원도 원주시 만대로65,37.340,127.921,만대초등학교,033-737-8500,00:00,24:00,00:00,24:00,00:00,24:00,00:00,24:00,00:00,24:00,,
강원도,만종초등학교,노상,강원도 원주시 호저면 원문로599,37.356,127.902,만종초등학교,033-747-2774,00:00,24:00,00:00,24:00,00:00,24:00,00:00,24:00,00:00,24:00,없음,
강원도,명륜초등학교,노상,강원도 원주시 행구로25,37.343,127.958,명륜초등학교,033-761-8192,00:00,24:00,00:00,24:00,00:00,24:00,00:00,24:00,00:00,24:00,,
강원도,버들초등학교,노상,강원도 원주시 건강로80,37.321,127.986,버들초등학교,033-769-6790,12:00,24:00,00:00,24:00,00:00,24:00,00:00,24:00,00:00,18:00,,
강원도,봉대초등학교,노상,강원도 원주시 혁신로 300,37.324,127.978,봉대초등학교,033-738-1807,00:00,24:00,00:00,24:00,00:00,24:00,00:00,24:00,00:00,24:00,,
강원도,부론초등학교,노상,강원도 원주시 부론면 법천시장길 58,0.000,0.000,부론초등학교,033-732-3021,00:00,24:00,00:00,24:00,00:00,24:00,00:00,24:00,00:00,24:00,,
강원도,북원초등학교,노상,강원도 원주시 단구로 60,37.344,127.938,북원초등학교,033-734-9533,00:00,24:00,00:00,24:00,00:00,24:00,00:00,24:00,00:00,24:00,,
강원도,산현초등학교,노외,강원도 원주시 호저면 칠봉로 347,37.425,127.893,산현초등학교,033-731-8875,09:00,18:00,09:00,18:00,09:00,18:00,09:00,18:00,09:00,18:00,,
강원도,서곡초등학교,노상,강원도 원주시 용수골길 159,37.298,127.939,서곡초등학교,033-763-4800,12:00,24:00,00:00,24:00,00:00,24:00,00:00,24:00,00:00,18:00,,
강원도,서원주초등학교,노상,강원도 원주시 남원로469번길 61,37.327,127.940,서원주초등학교,033-766-8852,09:00,18:00,09:00,18:00,09:00,18:00,09:00,18:00,09:00,18:00,,
강원도,소초초등학교,노상,강원도 원주시 소초면 평장안골길 15,37.418,128.004,소초초등학교,033-732-9432,00:00,24:00,00:00,24:00,00:00,24:00,00:00,24:00,00:00,24:00,,
강원도,솔샘초등학교,부설,강원도 원주시 무실로 381,37.330,127.989,솔샘초등학교,033-738-2300,00:00,24:00,00:00,24:00,00:00,24:00,00:00,24:00,00:00,24:00,,
강원도,신림초등학교,노상,강원도 원주시 신림면 치악로34-9,37.000,128.000,신림초등학교,033-762-5009,00:00,24:00,00:00,24:00,00:00,24:00,00:00,24:00,00:00,18:00,,
강원도,우산초등학교,노상,강원도 원주시 우산초교길 84,37.370,127.933,우산초등학교,033-735-3921,09:00,17:00,09:00,17:00,09:00,17:00,09:00,17:00,09:00,17:00,,
강원도,원주초등학교,노외,강원도 원주시 봉산로 15,0.000,0.000,원주초등학교,033-742-2029,09:00,24:00,00:00,24:00,00:00,24:00,00:00,24:00,00:00,18:00,,
강원도,일산초등학교,노상,강원도 원주시 일산초교길1,37.346,127.942,일산초등학교,033-731-0685 / 033-731-0683,00:00,23:59,00:00,23:59,00:00,23:59,00:00,23:59,00:00,23:59,,
강원도,지정초등학교,노상,강원도 원주시 지정면 지정로 103,37.348,127.846,지정초등학교,033-731-2942,00:00,24:00,00:00,24:00,00:00,24:00,00:00,24:00,00:00,24:00,,
강원도,태장초등학교,노상,강원도 원주시 현충로 260,37.377,127.951,태장초등학교,033-731-8452,12:00,24:00,00:00,24:00,00:00,24:00,00:00,24:00,00:00,24:00,,
강원도,학성초등학교,노외,강원도 원주시 천사로 255,37.354,127.951,학성초등학교,033-732-3047,00:00,24:00,00:00,24:00,00:00,24:00,00:00,24:00,00:00,24:00,24시간 개방,
강원도,호저초등학교,부설,강원도 원주시 호저면 호저로 428,0.000,0.000,호저초등학교,033-732-9138,13:00,24:00,00:00,24:00,00:00,24:00,00:00,24:00,00:00,18:00,,
강원도,원주삼육초등학교,노상,강원도 원주시 북원로 1996,37.326,127.922,원주삼육중고교,033-749-6605,00:00,24:00,00:00,24:00,00:00,24:00,00:00,24:00,00:00,24:00,중고교에서 관리,
강원도,남원주중학교,노상,강원도 원주시 시청로 333,0.000,0.000,남원주중학교,033-378-7383,08:00,24:00,00:00,24:00,00:00,24:00,00:00,24:00,00:00,24:00,,
강원도,부론중학교,부설,강원도 원주시 부귀로 35,0.000,0.000,부론중학교,033-769-1705,08:00,17:00,08:00,17:00,08:00,17:00,08:00,17:00,08:00,17:00,,
강원도,신림중학교,노상,강원도 원주시 신림면 마지동길 91,0.000,0.000,,,00:00,24:00,00:00,24:00,00:00,24:00,00:00,24:00,00:00,24:00,,
강원도,원주중학교,부설,강원도 원주시 치악로 1724,37.337,127.958,원주중학교,,00:00,24:00,00:00,24:00,00:00,24:00,00:00,24:00,00:00,24:00,,
강원도,평원중학교,노상,강원도 원주시 무실로 222,37.338,127.936,평원중학교,033-732-6223,12:00,24:00,00:00,24:00,00:00,24:00,00:00,24:00,00:00,18:00,,
강원도,학성중학교,노상,강원도 원주시 동진골2길 24,37.350,127.940,학성중학교,033-731-1182,06:00,24:00,00:00,24:00,00:00,24:00,00:00,24:00,00:00,18:00,,
강원도,영서고등학교,노외,강원도 원주시 치악로 1384,37.315,127.981,영서고등학교,033-769-5000,00:00,24:00,00:00,24:00,00:00,24:00,00:00,24:00,00:00,24:00,,
강원도,원주고등학교,노상,강원도 원주시 치악로 1765,37.340,127.952,원주고등학교,033-740-9000,00:00,24:00,00:00,24:00,00:00,24:00,00:00,24:00,00:00,24:00,,
강원도,치악고등학교,노상,강원도 원주시 치악고교길 16,37.317,127.959,치악고등학교,033-737-6000,00:00,18:00,00:00,18:00,00:00,18:00,00:00,18:00,00:00,18:00,,
강원도,육민관고등학교,노상,강원도 원주시 북원로 1800,37.309,127.918,육민관,033-763-8874,00:00,24:00,00:00,24:00,00:00,24:00,00:00,24:00,00:00,24:00,,
강원도,원주교육문화관,노상,강원도 원주시 북원로2312,37.351,127.936,원주교육문화관,033-737-1034,00:00,24:00,00:00,24:00,00:00,24:00,00:00,24:00,00:00,24:00,,
강원도,강원도원주교육지원청,노상,강원도 원주시 단구로 151,37.339,127.946,강원도원주교육지원청,033-760-5726,00:00,24:00,00:00,24:00,00:00,24:00,00:00,24:00,00:00,24:00,,
강원도,육민관중학교,노외,강원도 원주시 흥업면 북원로 1800,37.308,127.921,육민관중학교,033-763-8633,00:00,24:00,00:00,24:00,00:00,24:00,00:00,24:00,00:00,18:00,,
강원도,기린초등학교,부설,강원도 인제군 기린면 기린로 76,37.950,128.310,기린초등학교,033-461-7032,00:00,24:00,00:00,24:00,00:00,24:00,00:00,24:00,00:00,24:00,,
강원도,서성초등학교,노상,강원도 인제군 금강로 1801-42,38.260,128.209,서성초등학교,033-463-3209,08:00,24:00,00:00,24:00,00:00,24:00,00:00,24:00,00:00,24:00,,
강원도,신남중학교,노상,강원도 인제군 남면 신남로 47-35,37.970,128.079,신남중고,033-461-6031,00:00,24:00,00:00,24:00,00:00,24:00,00:00,24:00,00:00,24:00,,
강원도,인제고등학교,노상,강원도 인제군 인제읍249번길 22,0.000,0.000,인제고,033-460-0300,00:00,24:00,00:00,24:00,00:00,24:00,00:00,24:00,00:00,24:00,,
강원도,강원도인제교육지원청,노외,강원도 인제군 인제로 193번길 15,38.070,128.171,강원도인제교육지원청,033-460-1000,06:00,18:00,06:00,18:00,06:00,18:00,06:00,18:00,06:00,18:00,우리청후면주차장이용권장,
강원도,백전초등학교,노상,강원도 정선군 화암면 대지산길22,37.274,128.873,백전초등학교,033-591-8048,00:00,24:00,00:00,24:00,00:00,24:00,00:00,24:00,00:00,24:00,,
강원도,벽탄초등학교,노상,강원도 정선군 정선읍 벽탄길 32,37.396,128.601,벽탄초등학교,033-562-8216,09:00,24:00,09:00,24:00,09:00,24:00,09:00,24:00,09:00,24:00,,
강원도,봉양초등학교,부설,강원도 정선군 정선읍 녹송7길1,37.300,128.600,봉양초등학교,033-562-8464,00:00,24:00,00:00,24:00,00:00,24:00,00:00,24:00,00:00,24:00,,
강원도,북평초등학교,노상,강원도 정선군 북평면 서동로 2170,37.456,128.674,북평초등학교,033-562-5898,00:00,24:00,00:00,24:00,00:00,24:00,00:00,24:00,00:00,24:00,,
강원도,임계초등학교,노상,강원도 정선군 임계면 송계1길 7,0.000,0.000,임계초등학교,033-562-6165,09:00,17:00,09:00,17:00,09:00,17:00,09:00,17:00,09:00,17:00,,
강원도,정선초등학교,노외,강원도 정선군 정선읍 비봉로 15,37.382,128.660,정선초등학교,033-563-0010,00:00,24:00,00:00,24:00,00:00,24:00,00:00,24:00,00:00,24:00,,
강원도,화동초등학교,노상,강원도 정선군 화암면 그림바위길 66-20,37.339,128.787,화동초등학교,033-562-2037,07:00,18:00,07:00,18:00,07:00,18:00,07:00,18:00,07:00,18:00,,
강원도,임계중학교,부설,강원도 정선군 임계면 백두대간로 1313,37.494,128.845,임계중학교,033-562-6028,00:00,24:00,00:00,24:00,00:00,24:00,00:00,24:00,00:00,24:00,,
강원도,정선중학교,노외,강원도 정선읍 봉양4길 15,0.000,0.000,정선고등학교,033-562-0935,08:50,16:50,08:50,16:50,08:50,16:50,08:50,16:50,08:50,16:50,,
강원도,화동중학교,부설,강원도 정선군 화암면 그림바위길 50,37.340,128.787,화동중학교,033-562-2031,00:00,24:00,00:00,24:00,00:00,24:00,00:00,24:00,00:00,24:00,,
강원도,임계고등학교,부설,강원도 정선군 임계면 백두대간로 1313,37.494,128.845,임계고등학교,033-562-6028,00:00,24:00,00:00,24:00,00:00,24:00,00:00,24:00,00:00,24:00,,
강원도,정선고등학교,노외,강원도 정선읍 봉양4길 15,0.000,0.000,정선고등학교,033-562-0935,08:50,16:50,08:50,16:50,05:50,16:50,08:50,16:50,08:50,16:50,,
강원도,정선정보공업고등학교,노상,강원도 정선군 정선읍 용담샛길 2,0.000,0.000,정선정보공업고등학교,033-560-9414,00:00,24:00,00:00,24:00,00:00,24:00,00:00,24:00,00:00,24:00,,
강원도,정선교육지원청,노외,강원도 정선군 정선읍 비봉로 41 강원도정선교육지원청,37.382,128.663,정선교육지원청,033-560-8119,00:00,24:00,00:00,24:00,00:00,24:00,00:00,24:00,00:00,24:00,,
강원도,내대초등학교,노상,강원도 철원군 갈말읍 두루미로 422-21,38.206,127.298,내대초등학교,033-452-5596,09:00,18:00,09:00,18:00,09:00,18:00,09:00,18:00,09:00,18:00,,
강원도,묘장초등학교,부설,강원도 철원군 철원읍 묘장로 344,0.000,0.000,묘장초등학교,,00:00,24:00,00:00,24:00,00:00,24:00,00:00,24:00,00:00,24:00,,
강원도,서면초등학교,부설,강원도 철원군 서면 자등로 634,38.169,127.416,서면초등학교,033-458-8814,00:00,24:00,00:00,24:00,00:00,24:00,00:00,24:00,00:00,24:00,,
강원도,신철원초등학교,노상,강원도 철원군 갈말읍 명성로 139번안길 45,38.147,127.305,신철원초등학교,033-452-6086,09:00,24:00,00:00,24:00,00:00,24:00,00:00,24:00,00:00,24:00,,
강원도,용정초등학교,부설,강원도 철원군 동송읍 상노2길 11,38.164,127.242,용정초등학교,033-455-6371,00:00,24:00,00:00,24:00,00:00,24:00,00:00,24:00,00:00,24:00,,
강원도,철원교육지원청,부설,강원도 철원군 갈말읍 명성로 139번길 47,38.145,127.302,철원교육지원청,033-450-1000,12:00,24:00,00:00,24:00,00:00,24:00,00:00,24:00,00:00,12:00,,
강원도,철원교육도서관,노상,강원도 철원군 철원읍 금학로 273번길 21-14,38.000,127.000,철원교육도서관,033-455-6928,00:00,24:00,00:00,24:00,00:00,24:00,00:00,24:00,00:00,24:00,,
강원도,가산초등학교,노외,강원도 춘천시 동면 가산로 52,37.910,127.782,가산초등학교,033-241-1002,00:00,24:00,00:00,24:00,00:00,24:00,00:00,24:00,00:00,24:00,,
강원도,금병초등학교,부설,강원도 춘천시 신동면 김유정로 1394,37.815,127.715,금병초등학교,033-261-8847,00:00,24:00,00:00,24:00,00:00,24:00,00:00,24:00,00:00,24:00,,
강원도,금산초등학교,노상,강원도 춘천시 서면 금산2길 21,37.904,127.695,금산초등학교,033-243-2488,12:00,24:00,00:00,24:00,00:00,24:00,00:00,24:00,00:00,18:00,,
강원도,서상초등학교,노상,강원도 춘천시 서면 박사로 1348,37.929,127.707,서상초등학교,033-243-6320,00:00,24:00,00:00,24:00,00:00,24:00,00:00,24:00,00:00,24:00,,
강원도,성림초등학교,노외,강원도 춘천시 지석로 47,37.852,127.740,성림초등학교,033-263-1843,07:50,17:00,07:50,17:00,07:50,17:00,07:50,17:00,07:50,17:00,,
강원도,성원초등학교,부설,강원도 춘천시 승지골길16번길 36,0.000,0.000,성원초등학교,033-264-6033,00:00,24:00,00:00,24:00,00:00,24:00,00:00,24:00,00:00,24:00,,
강원도,소양초등학교,노상,강원도 춘천시 충열로,37.905,127.740,소양초등학교,033-251-1492,00:00,24:00,00:00,24:00,00:00,24:00,00:00,24:00,00:00,24:00,,
강원도,송화초등학교,부설,강원도 춘천시 사북면 춘화로 510-5,37.988,127.708,송화초등학교,033-244-5942,00:00,24:00,00:00,24:00,00:00,24:00,00:00,24:00,00:00,24:00,,
강원도,호반초등학교,노상,강원도 춘천시 후만로 126번길 35,0.000,0.000,춘천교육지원청,033-256-8214,09:00,24:00,00:00,24:00,00:00,24:00,00:00,24:00,00:00,16:30,,
강원도,후평초등학교,노상,강원도 춘천시 춘천로 295번길 17,0.000,0.000,후평초등학교,033-251-0933,07:00,22:00,07:00,22:00,07:00,22:00,07:00,22:00,07:00,22:00,,
강원도,강원체육중학교,노상,강원도 춘천시 자라우새길 126,37.865,127.693,강원체육고등학교,,00:00,24:00,00:00,24:00,00:00,24:00,00:00,24:00,00:00,24:00,후문주차장만 개방,
강원도,광판중학교,노상,강원도 춘천시 남산면 김유정로83,37.730,127.700,광판중학교,033-263-3300,08:30,16:30,08:30,16:30,08:30,16:30,08:30,16:30,08:30,16:30,,
강원도,대룡중학교,노상,강원도 춘천시 퇴계농공로 65,0.000,0.000,대룡중학교,033-250-2010,09:00,18:00,09:00,18:00,09:00,18:00,09:00,18:00,09:00,18:00,,
강원도,봉의중학교,노상,강원도 춘천시 춘천로 296번길 55,37.878,127.744,봉의중학교,033-256-6885,09:00,18:00,09:00,18:00,09:00,18:00,09:00,18:00,09:00,18:00,,
강원도,신포중학교,노상,강원도 춘천시 사북면 토둔1길 34,38.026,127.642,신포붕학교,033-243-2987,00:00,24:00,00:00,24:00,00:00,24:00,00:00,24:00,00:00,24:00,,
강원도,창촌중학교,노외,강원도 춘천시 남산면 강촌로 136,37.807,127.635,창촌중,033-261-0006,09:00,24:00,00:00,24:00,00:00,24:00,00:00,24:00,00:00,17:00,,
강원도,춘성중학교,부설,강원도 춘천시 율문길 95-8,37.927,127.749,춘성중학교,033-243-3672,09:00,21:00,09:00,21:00,09:00,21:00,09:00,21:00,09:00,21:00,,
강원도,춘천여자중학교,노외,강원도 춘천시 공지로200번길36(효자동),0.000,0.000,춘천여자중학교,033-269-2509,09:00,18:00,09:00,18:00,09:00,18:00,09:00,18:00,09:00,18:00,,
강원도,춘천고등학교,노상,강원도 춘천시 중앙로68번길37,0.000,0.000,강원도교육청,033-240-2000,,,,,,,,,,,개방하지않음.,
강원도,춘천기계공업고등학교,노상,강원도 춘천시 후석로 462-53,0.000,0.000,강원도교육청,033-258-8698,06:00,24:00,06:00,24:00,06:00,24:00,06:00,24:00,06:00,24:00,,
강원도,춘천여자고등학교,부설,강원도 춘천시 동면 만천양지길 95,37.889,127.763,춘천여자고등학교,033-245-7850,00:00,24:00,00:00,24:00,00:00,24:00,00:00,24:00,00:00,24:00,,
강원도,전인고등학교,노상,강원도 춘천시 동산면 새술막길 630,37.789,127.751,전인고등학교,033-262-3449,12:00,24:00,00:00,24:00,00:00,24:00,00:00,24:00,00:00,14:00,,
강원도,강원도교육청,부설,강원도 춘천시 영서로 2854,37.907,127.725,강원도교육청,033-258-5226,00:00,24:00,00:00,24:00,00:00,24:00,00:00,24:00,00:00,24:00,,
강원도,춘천교육문화관,부설,강원도 춘천시 중앙로107번길 17,37.870,127.720,춘천교육문화관,033-258-2561,09:00,24:00,09:00,24:00,09:00,24:00,09:00,24:00,09:00,24:00,,
강원도,춘천교육지원청,부설,강원도 춘천시 춘천로 145번길 18,37.877,127.729,춘천교육지원청,033-259-1507,00:00,24:00,00:00,24:00,00:00,24:00,00:00,24:00,00:00,24:00,,
강원도,춘천중학교,노상,강원도 춘천시 공지로442-10,37.875,127.719,춘천중학교,033-254-2721,00:00,24:00,00:00,24:00,00:00,24:00,00:00,24:00,00:00,18:00,,
강원도,미동초등학교,노상,강원도 태백시 역둔원동로 1405,37.150,128.590,미동초등학교,033-552-9442,00:00,24:00,00:00,24:00,00:00,24:00,00:00,24:00,00:00,17:00,,
강원도,삼성초등학교,부설,강원도 태백시 평화길 44,37.098,129.023,삼성초등학교,033-581-6856,00:00,24:00,00:00,24:00,00:00,24:00,00:00,24:00,00:00,24:00,,
강원도,상장초등학교,노상,강원도 태백시 태백로 1223,37.149,128.994,상장초등학교,033-550-8809,09:00,24:00,09:00,24:00,09:00,24:00,09:00,24:00,09:00,24:00,,
강원도,철암초등학교,부설,강원도 태백시 동태백로 584,0.000,0.000,철암초등학교,033-582-1434,00:00,24:00,00:00,24:00,00:00,24:00,00:00,24:00,00:00,24:00,,
강원도,태백초등학교,부설,강원도 태백시 태백로 1811,0.000,0.000,태백초등학교,033-581-3756,00:00,24:00,00:00,24:00,00:00,24:00,00:00,24:00,00:00,24:00,,
강원도,태서초등학교,부설,강원도 태백시 태백로 802,37.180,128.983,태서초등학교,,00:00,24:00,00:00,24:00,00:00,24:00,00:00,24:00,00:00,24:00,,
강원도,통리초등학교,부설,강원도 태백시 통골 2길 9,37.167,129.036,통리초등학교,033-550-0100,00:00,24:00,00:00,24:00,00:00,24:00,00:00,24:00,00:00,24:00,,
강원도,황지초등학교,노상,강원도 태백시 황지로 63,0.000,0.000,황지초등학교,033-550-1592,00:00,24:00,00:00,24:00,00:00,24:00,00:00,24:00,00:00,24:00,,
강원도,상장중학교,노상,강원도 태백시 태백로1221,37.150,128.993,상장중학교,,00:00,24:00,00:00,24:00,00:00,24:00,00:00,24:00,00:00,24:00,,
강원도,황지여자중학교,노상,강원도 태백시 연지로 33번길 26,37.178,128.989,태백교육지원청,033-550-9212,00:00,24:00,00:00,24:00,00:00,24:00,00:00,24:00,00:00,24:00,,
강원도,황지중학교,노상,강원도 태백시 문화로16,37.096,128.592,황지중학교,033-550-5111,00:00,24:00,00:00,24:00,00:00,24:00,00:00,24:00,00:00,24:00,교문앞 주차장 개방,
강원도,철암고등학교,부설,강원도 태백시 상철암길 10-32(철암동),37.123,129.045,철암고등학교,033-580-9102,00:00,24:00,00:00,24:00,00:00,24:00,00:00,24:00,00:00,18:00,,
강원도,황지정보산업고등학교,부설,강원도 태백시 문화로 1길1,0.000,0.000,황지정산고,033-550-6500,00:00,24:00,00:00,24:00,00:00,24:00,00:00,24:00,00:00,24:00,,
강원도,신리초등학교,부설,강원도 평창군 대화면 하송빈1길 23,0.000,0.000,강원도교육청,,09:00,22:00,09:00,22:00,09:00,22:00,09:00,22:00,09:00,22:00,,
강원도,안미초등학교,노상,강원도 평창군 대화면 하안미길 11-8,37.460,128.435,안미초등학교,033-333-0283,09:00,24:00,09:00,24:00,09:00,24:00,09:00,24:00,09:00,24:00,,
강원도,장평초등학교,노상,강원도 평창군 용평면 갈정지길 35-43,37.594,128.411,장평초등학교,033-332-4303,00:00,24:00,00:00,24:00,00:00,24:00,00:00,24:00,00:00,24:00,,
강원도,진부초등학교,노상,강원도 평창군 진부면 진부새싹길 52,37.640,128.557,진부초등학교,033-339-7792,12:00,24:00,00:00,24:00,00:00,24:00,00:00,24:00,00:00,18:00,,
강원도,평창초등학교,부설,강원도 평창읍 송학로 71,37.370,128.392,평창초등학교,033-339-5177,00:00,24:00,00:00,24:00,00:00,24:00,00:00,24:00,00:00,18:00,,
강원도,횡계초등학교,노상,강원도 평창군 대관령면 꽃밭양지길 16-3,0.000,0.000,,,00:00,24:00,00:00,24:00,00:00,24:00,00:00,24:00,00:00,24:00,,
강원도,미탄중학교,노외,강원도 평창군 미탄면 서동로 3647,0.000,0.000,미탄중학교,033-332-3880,00:00,24:00,00:00,24:00,00:00,24:00,00:00,24:00,00:00,24:00,,
강원도,용전중학교,노상,강원도 평창군 용평면 도사길 9,37.609,128.439,용전중학교,033-332-5021,06:00,24:00,06:00,24:00,06:00,24:00,06:00,24:00,06:00,24:00,,
강원도,평창중학교,노상,강원도 평창군 평창읍 노성로 145,37.370,128.399,평창중학교,033-339-7901,09:00,18:00,09:00,18:00,09:00,18:00,09:00,18:00,09:00,18:00,,
강원도,평창고등학교,노상,강원도 평창군 평창읍 노람들길 141,37.372,128.405,평창고등학교,033-332-2831,00:00,24:00,00:00,24:00,00:00,24:00,00:00,24:00,00:00,24:00,,
강원도,평창교육지원청,노상,강원도 평창군 평창읍 노성로 193-9,37.369,128.401,평창교육지원청,033-330-1410,00:00,24:00,00:00,24:00,00:00,24:00,00:00,24:00,00:00,24:00,,
강원도,반곡초등학교(홍천),노외,강원도 홍천군 서면 팔봉산로 639,37.600,127.600,반곡초등학교,033-434-1238,08:30,16:30,08:30,16:30,08:30,16:30,08:30,16:30,08:30,16:30,,
강원도,삼생초등학교,노외,강원도 홍천군 서석면 구룡령로 2933,37.700,128.226,삼생초등학교,033-436-4180,00:00,24:00,00:00,24:00,00:00,24:00,00:00,24:00,00:00,24:00,,
강원도,석화초등학교,부설,강원도 홍천군 홍천읍 석화안길1길 12,37.698,127.893,석화초등학교,033-430-8888,09:00,18:00,09:00,18:00,09:00,18:00,09:00,18:00,09:00,18:00,운동장 개방불가(인조잔디),
강원도,주봉초등학교,노상,강원도 홍천군 홍천읍 두루봉1길 16,37.709,127.914,주봉초등학교,033-434-3295,08:30,16:30,08:30,16:30,08:30,16:30,08:30,16:30,08:30,16:30,,
강원도,협신초등학교,노외,강원도 홍천군 남면 시동안로 89,0.000,0.000,협신초등학교,033-432-5052,00:00,24:00,00:00,24:00,00:00,24:00,00:00,24:00,00:00,24:00,,
강원도,화계초등학교,노상,강원도 홍천군 북방면 능평길 10,0.000,0.000,화계초등학교,033-434-2360,00:00,24:00,00:00,24:00,00:00,24:00,00:00,24:00,00:00,24:00,,
강원도,화촌초등학교,노상,강원도 홍천군 화촌면 성산로147번길 8,37.772,127.967,화촌초등학교,033-432-8318,00:00,24:00,00:00,24:00,00:00,24:00,00:00,24:00,00:00,24:00,,
강원도,내면중학교,노상,강원도 홍천군 내면 구룡령로 5174,37.768,128.387,내면중고등학교,033-439-3900,00:00,24:00,00:00,24:00,00:00,24:00,00:00,24:00,00:00,24:00,,
강원도,동화중학교,노상,강원도 홍천군 동면 속초길 22,37.680,127.938,동화중학교,033-439-4201,00:00,24:00,00:00,24:00,00:00,24:00,00:00,24:00,00:00,24:00,,
강원도,홍천중학교,부설,강원도 홍천군 홍천읍 석화로 109-10,37.698,127.891,홍천중학교,033-434-7475,00:00,24:00,00:00,24:00,00:00,24:00,00:00,24:00,00:00,24:00,,
강원도,홍천농업고등학교,노상,강원도 홍천군 홍천읍 홍천로 678-15,37.706,127.911,홍천농업고등학교,033-439-3583,00:00,24:00,00:00,24:00,00:00,24:00,00:00,24:00,00:00,24:00,학교 공사중,
강원도,홍천여자고등학교,노상,강원도 홍천군 홍천읍 꽃뫼로71,37.693,127.881,홍천여자고등학교,033-439-8807,09:00,24:00,00:00,24:00,00:00,24:00,00:00,24:00,00:00,24:00,운동장 미개방,
강원도,다목초등학교,노상,강원도 화천군 상서면 다파로 9-4,38.178,127.535,다목초등학교,033-441-7086,13:00,20:30,13:00,20:30,13:00,20:30,13:00,20:30,13:00,20:30,,
강원도,상승초등학교,노외,강원도 화천군 평촌길 126-30,0.000,0.000,상승초등학교,033-441-0504,00:00,24:00,00:00,24:00,00:00,24:00,00:00,24:00,00:00,24:00,,
강원도,화천초등학교,노상,강원도 화천군 화천읍 화천새싹길 57,38.106,127.709,화천초등학교,033-441-2887,09:00,18:00,09:00,18:00,09:00,18:00,09:00,18:00,09:00,18:00,,
강원도,화천정보산업고등학교,노상,강원도 화천군 화천읍 상승로 69,38.108,127.705,화천정보산업고등학교,033-440-1615,00:00,24:00,00:00,24:00,00:00,24:00,00:00,24:00,00:00,24:00,,
강원도,화천교육지원청,노상,강원도 화천군 화천읍 상승로 19,0.000,0.000,화천교육지원청,033-440-1500,00:00,24:00,00:00,24:00,00:00,24:00,00:00,24:00,00:00,24:00,,
강원도,화천교육도서관,노상,강원도 화천군 화천읍 상승로3길 22,0.000,0.000,화천교육도서관,033-441-6343,00:00,24:00,00:00,24:00,00:00,24:00,00:00,24:00,00:00,24:00,평일 24시간 개방함,
강원도,성남초등학교,부설,강원도 횡성군 횡성읍 횡성로 109,0.000,0.000,성남초등학교,033-343-7158,00:00,24:00,00:00,24:00,00:00,24:00,00:00,24:00,00:00,24:00,,
강원도,창림초등학교,부설,강원도 횡성군 횡성읍 한우로 789,37.496,128.036,창림초등학교,033-343-5601,00:00,24:00,00:00,24:00,00:00,24:00,00:00,24:00,00:00,24:00,,
강원도,횡성초등학교,노상,강원도 횡성군 횡성읍 교항북로 35,37.488,127.979,횡성초등학교,,09:00,17:00,09:00,17:00,09:00,17:00,09:00,17:00,09:00,17:00,,
강원도,갑천중학교,노상,강원도 횡성군 갑천면 갑천로 17,37.561,128.114,갑천중학교,033-342-9142,09:00,18:00,09:00,18:00,09:00,18:00,09:00,18:00,09:00,18:00,,
강원도,우천중학교,부설,강원도 횡성군 우천면 수남로 59번길 37,37.469,128.049,우천중학교,033-342-6075,00:00,24:00,00:00,24:00,00:00,24:00,00:00,24:00,00:00,24:00,,
강원도,갑천고등학교,노상,강원도 횡성군 갑천면 갑천로 17,37.561,128.114,갑천고등학교,033-342-9142,09:00,18:00,09:00,18:00,09:00,18:00,09:00,18:00,09:00,18:00,,
강원도,횡성교육지원청,부설,강원도 횡성군 횡성읍 한우로242번길 9,37.492,127.981,횡성교육지원청,033-340-0363,00:00,24:00,00:00,24:00,00:00,24:00,00:00,24:00,00:00,24:00,,
강원도,횡성교육도서관,노상,강원도 횡성군 횡성읍 교항로 32,0.000,0.000,횡성교육도서관,033-344-6591,18:00,24:00,00:00,24:00,00:00,24:00,00:00,24:00,00:00,24:00,,
경기도,고양교육지원청,부설,경기도 고양시 일산동구 중앙로 1296,,,고양교육지원청,031-900-2811,0:00,24:00,0:00,24:00,0:00,24:00,0:00,24:00,0:00,24:00,,
경기도,다솔유,부설,경기도 고양시 덕양구 도래울1로 37,,,다솔유,031-968-5296,미개방,미개방,16:30,20:30,미개방,미개방,16:30,20:30,미개방,미개방,,
경기도,성사유,부설,경기도 고양시 덕양구 호국로 834번길 89,,,성사유,031-966-2782,6:00,13:50,14:00,18:00,6:00,8:00,9:00,18:00,6:00,18:00,,
경기도,소만유,부설,경기도 고양시 덕양구 화신로 48,,,소만유,031-979-3231,0:00,24:00,0:00,24:00,0:00,24:00,0:00,24:00,0:00,24:00, ,
경기도,가람초,부설,경기도 고양시 덕양구 행신로 311번길 78,,,가람초,031-973-0324,0:00,24:00,0:00,24:00,0:00,24:00,0:00,24:00,0:00,24:00,,
경기도,가좌초,부설,경기도 고양시 일산서구 가좌2로 31,,,가좌초,031-922-6044,9:00,24:00,9:00,24:00,9:00,24:00,9:00,24:00,9:00,24:00, ,
경기도,강선초,부설,경기도 고양시 일산서구 강선로77,,,강선초,031-911-6213,9:00,17:00,9:00,17:00,9:00,17:00,9:00,17:00,9:00,17:00, ,
경기도,고양관산초,부설,경기도 고양시 덕양구 통일로 726번길 130,,,고양관산초,031-969-8438,미개방,미개방,9:00,18:00,미개방,미개방,9:00,18:00,9:00,18:00,,
경기도,고양동산초,부설,경기도 고양시 덕양구 동세로 32,,,고양동산초,02-381-1980,0:00,24:00,0:00,24:00,0:00,24:00,0:00,24:00,0:00,24:00, ,
경기도,고양신일초,부설,경기도 고양시 일산서구 강선로 183,,,고양신일초,031-912-2071,8:40,15:00,8:40,15:00,8:40,15:00,8:40,15:00,8:40,15:00,,
경기도,고양초,부설,경기도 고양시 덕양구 혜음로 13번길 22-7,,,고양초,031-962-0323,0:00,24:00,0:00,24:00,0:00,24:00,0:00,24:00,0:00,24:00, ,
경기도,고양한내초,부설,경기도 고양시 일산서구 고양대로 255번길 27,,,고양한내초,031-924-5093,6:00,19:00,6:00,19:00,6:00,19:00,6:00,19:00,6:00,19:00,,
경기도,고양화수초,부설,경기도 고양시 덕양구 화수로 25,,,고양화수초,031-966-4038,6:00,16:40,미개방,미개방,미개방,미개방,16:40,18:00,6:00,18:00,,
경기도,금계초,부설,경기도 고양시 일산동구 강촌로 90,,,금계초,031-902-4503,9:00,18:00,9:00,18:00,9:00,18:00,9:00,18:00,9:00,18:00, ,
경기도,낙민초,부설,경기도 고양시 일산동구 강석로 134,,,낙민초,031-902-1322,0:00,24:00,0:00,24:00,0:00,24:00,0:00,24:00,0:00,24:00, ,
경기도,내유초,부설,경기도 고양시 덕양구 통일로 1132,,,내유초,031-962-7594,0:00,14:00,14:00,24:00,0:00,8:30,8:30,24:00,0:00,24:00,,
경기도,냉천초,부설,경기도 고양시 일산동구 산두로 99,,,냉천초,031-902-3414,0:00,24:00,0:00,24:00,0:00,24:00,0:00,24:00,0:00,24:00, ,
경기도,다솜초,부설,경기도 고양시 일산동구 숲속마을로 139,,,다솜초,031-932-8567,0:00,24:00,0:00,24:00,0:00,24:00,0:00,24:00,0:00,24:00, ,
경기도,대곡초,부설,경기도 고양시 덕양구 대주로 138-50,,,대곡초,031-965-5492,0:00,24:00,0:00,24:00,0:00,24:00,0:00,24:00,0:00,24:00, ,
경기도,대화초,부설,경기도 고양시 일산서구 송포로 50,,,대화초,031-911-2073,0:00,24:00,0:00,24:00,0:00,24:00,0:00,24:00,0:00,24:00, ,
경기도,덕은초,부설,경기도 고양시 덕양구 중앙로176번길 18-4,,,덕은초,02-3158-5581,8:40,16:40,미개방,미개방,미개방,미개방,미개방,미개방,미개방,미개방,,
경기도,덕이초,부설,경기도 고양시 일산서구 덕이로 104,,,덕이초,031-914-2118,8:00,19:00,미개방,미개방,8:00,19:00,8:00,19:00,8:00,19:00,,
경기도,도래울초,부설,경기도 고양시 덕양구 도래울3로 5,,,도래울초,031-963-6896,0:00,24:00,0:00,24:00,0:00,24:00,0:00,24:00,0:00,24:00, ,
경기도,모당초,부설,경기도 고양시 일산동구 하늘마을로 144,,,모당초,031-975-9238,0:00,24:00,0:00,24:00,0:00,24:00,0:00,24:00,0:00,24:00, ,
경기도,문촌초,부설,경기도 고양시 일산서구 주엽로 168,,,문촌초,031-912-0144,0:00,24:00,0:00,24:00,0:00,24:00,0:00,24:00,0:00,24:00, ,
경기도,문화초,부설,경기도 고양시 일산서구 강선로 123,,,문화초,031-912-2100,0:00,24:00,0:00,24:00,0:00,24:00,0:00,24:00,0:00,24:00, ,
경기도,백마초,부설,경기도 고양시 일산동구 일산로 230,,,백마초,031-901-2004,8:00,18:00,8:00,18:00,8:00,18:00,8:00,18:00,8:00,18:00, ,
경기도,백신초,부설,경기도 고양시 강촌로 26번길 66,,,백신초,031-904-2051,미개방,미개방,미개방,미개방,미개방,미개방,미개방,미개방,0:00,24:00,,
경기도,백양초,부설,경기도 고양시 뎍양구 화신로 238,,,백양초,031-971-0095,0:00,24:00,0:00,24:00,0:00,24:00,0:00,24:00,0:00,24:00, ,
경기도,벽제초,부설,경기도 고양시 일산동구 공릉천로 13,,,벽제초,031-962-8011,0:00,24:00,0:00,24:00,0:00,24:00,0:00,24:00,0:00,24:00, ,
경기도,삼송초,부설,경기도 고양시 덕양구 세솔로 150,,,삼송초,031-962-2367,0:00,24:00,0:00,24:00,0:00,24:00,0:00,24:00,0:00,24:00, ,
경기도,상탄초,부설,경기도 고양시 일산서구 현중로 47,,,상탄초,031-914-0301,0:00,24:00,0:00,24:00,0:00,24:00,0:00,24:00,0:00,24:00, ,
경기도,성사초,부설,경기도 고양시 덕양구 호국로834번길 89,,,성사초,031-964-2217,6:00,18:00,6:00,18:00,6:00,8:40,9:00,18:00,6:00,18:00,,
경기도,성석초,부설,경기도 고양시 일산동구 문봉길 110,,,성석초,031-977-7198,0:00,24:00,0:00,24:00,0:00,24:00,0:00,24:00,0:00,24:00, ,
경기도,성저초,부설,경기도 고양시 일산서구 성저로 92,,,성저초,031-915-0214,0:00,12:40,12:40,24:00,0:00,8:40,8:40,24:00,0:00,24:00,,
경기도,소만초,부설,경기도 고양시 덕양구 화신로 48,,,소만초,031-970-2146,미개방,미개방,9:40,24:00,미개방,미개방,0:00,24:00,0:00,24:00,,
경기도,송포초,부설,경기도 고양시 일산서구 송산로 379(가좌동),,,송포초,031-923-0166,미개방,미개방,9:00,18:00,미개방,미개방,9:00,18:00,9:00,18:00,,
경기도,신원초,부설,경기도 고양시 덕양구 신원3로 21,,,신원초,02-371-0205,0:00,24:00,0:00,24:00,미개방,미개방,0:00,24:00,0:00,24:00, ,
경기도,양일초,부설,경기도 고양시 일산동구 위시티로 151,,,양일초,031-967-1491,0:00,24:00,0:00,24:00,미개방,미개방,0:00,24:00,0:00,24:00, ,
경기도,용두초,부설,경기도 고양시 덕양구 용두로 121번길 20,,,용두초,02-384-0195,9:00,16:00,9:00,16:00,9:00,16:00,9:00,16:00,9:00,16:00, ,
경기도,용정초,부설,경기도 고양시 덕양구 은빛로17번길 53,,,용정초,031-967-0363,0:00,24:00,0:00,24:00,미개방,미개방,0:00,24:00,0:00,24:00, ,
경기도,원중초,부설,경기도 고양시 일산동구 위시티3로 67,,,원중초,031-963-5305,6:30,18:20,6:30,18:20,6:30,18:20,6:30,18:20,6:30,18:20, ,
경기도,율동초,부설,경기도 고양시 일산동구 산두로 223,,,율동초,031-913-0384,9:00,24:00,0:00,24:00,0:00,24:00,0:00,24:00,0:00,18:00,,
경기도,장촌초,부설,경기도 고양시 일산서구 호수로 856번길 43,,,장촌초,031-914-0471,8:30,16:30,0:00,24:00,0:00,24:00,0:00,24:00,0:00,24:00,,
경기도,저동초,부설,경기도 고양시 일산동구 대산로 11번길 37,,,저동초,031-914-0381,0:00,24:00,0:00,24:00,0:00,24:00,0:00,24:00,0:00,24:00, ,
경기도,정발초,부설,경기도 고양시 일산동구 강송로190,,,정발초,031-902-0184,미개방,미개방,9:00,18:00,미개방,미개방,9:00,18:00,9:00,18:00,,
경기도,중산초,부설,경기도 고양시 일산동구 탄중로 373,,,중산초,031-977-4193,0:00,24:00,0:00,24:00,0:00,24:00,0:00,24:00,0:00,24:00, ,
경기도,토당초,부설,경기도 고양시 덕양구 행신로 90,,,토당초,031-972-9677,0:00,24:00,0:00,24:00,0:00,24:00,0:00,24:00,0:00,24:00, ,
경기도,풍동초,부설,경기도 고양시 일산동구 숲속마을로 14-43,,,풍동초,031-932-8740,0:00,24:00,0:00,24:00,0:00,24:00,0:00,24:00,0:00,24:00, ,
경기도,하늘초,부설,경기도 고양시 일산동구 하늘마을 1로 46번지,,,하늘초,031-975-4280,9:00,19:00,9:00,19:00,9:00,19:00,9:00,19:00,9:00,19:00,,
경기도,한산초,부설,경기도 고양시 일산서구 하이파크1로 56,,,한산초,031-916-8453,8:00,20:00,8:00,20:00,8:00,20:00,8:00,20:00,8:00,20:00, ,
경기도,한수초,부설,경기도 고양시 일산서구 주엽로 118,,,한수초,031-912-2051,6:00,20:00,6:00,20:00,6:00,20:00,6:00,20:00,6:00,20:00, ,
경기도,행남초,부설,경기도 고양시 덕양구 소만로22,,,행남초,031-970-0535,0:00,24:00,0:00,24:00,0:00,24:00,0:00,24:00,0:00,24:00,9/23일 09:00-15:00 사용불가,
경기도,현산초,부설,경기도 고양시 일산서구 산현로 87,,,현산초,031-917-1403,0:00,24:00,0:00,24:00,0:00,24:00,0:00,24:00,0:00,24:00, ,
경기도,황룡초,부설,경기도 고양시 일산서구 탄현로 75,,,황룡초,031-915-0291,0:00,24:00,0:00,24:00,0:00,24:00,0:00,24:00,0:00,24:00,,
경기도,흥도초,부설,경기도 고양시 덕양구 도래울 1로 83,,,흥도초,031-967-7934,0:00,24:00,0:00,24:00,0:00,24:00,0:00,24:00,0:00,24:00, ,
경기도,가람중,부설,경기도 고양시 덕양구 화신로 122,,,가람중,031-930-4806,0:00,24:00,12:00,24:00,0:00,24:00,0:00,24:00,0:00,24:00,,
경기도,고양송산중,부설,경기도 고양시 일산서구 가좌2로 15,,,고양송산중,031-925-8317,미개방,미개방,0:00,24:00,미개방,미개방,0:00,24:00,0:00,24:00,,
경기도,능곡중,부설,경기도 고양시 덕양구 행당로 11번길 48,,,능곡중,031-974-7006,미개방,미개방,미개방,미개방,미개방,미개방,13:00,24:00,0:00,18:00,,
경기도,대송중,부설,경기도 고양시 일산서구 송포로 49,,,대송중,031-910-1890,0:00,24:00,0:00,24:00,0:00,24:00,0:00,24:00,0:00,24:00, ,
경기도,덕양중,부설,경기도 고양시 덕양구 중앙로 176번길 18-29,,,덕양중,02-3158-5352,0:00,24:00,0:00,24:00,0:00,24:00,0:00,24:00,0:00,24:00, ,
경기도,덕이중,부설,경기도 고양시 일산서구 하이파크3로 122,,,덕이중,031-913-7861,0:00,24:00,0:00,24:00,0:00,24:00,0:00,24:00,0:00,24:00, ,
경기도,도래울중,부설,경기도 고양시 덕양구 도래울로 57,,,도래울중,031-964-9571,0:00,17:00,미개방,미개방,17:00,24:00,0:00,24:00,0:00,24:00,,
경기도,무원중,부설,경기도 고양시 덕양구 무원로 45,,,무원중,031-974-9995,미개방,미개방,8:00,12:00,미개방,미개방,미개방,미개방,12:00,18:00,,
경기도,발산중,부설,경기도 고양시 일산구 고봉로 99,,,발산중,031-910-9888,0:00,24:00,0:00,24:00,0:00,24:00,0:00,24:00,0:00,24:00, ,
경기도,백마중,노상,경기도 고양시 일산동구 강촌로189,,,백마중,031-902-2813,0:00,24:00,0:00,24:00,0:00,24:00,0:00,24:00,0:00,24:00, ,
경기도,서정중,부설,경기도 고양시 덕양구 서정마을로 22,,,서정중,031-938-1091,0:00,24:00,0:00,24:00,0:00,24:00,0:00,24:00,0:00,24:00, ,
경기도,신능중,부설,경기도 고양시 덕양구 충장로 78,,,신능중,031-930-2811,미개방,미개방,9:00,18:00,미개방,미개방,9:00,18:00,9:00,18:00,,
경기도,신일중,부설,경기도 고양시 일산서구 고봉로 177,,,신일중,031-912-4052,0:00,24:00,0:00,24:00,0:00,24:00,0:00,24:00,0:00,24:00, ,
경기도,안곡중,부설,경기도 고양시 일산동구 하늘마을로 9,,,안곡중,031-830-2900,미개방,미개방,미개방,미개방,9:00,17:00,9:00,17:00,9:00,17:00,,
경기도,오마중,부설,경기도 고양시 일산서구 주엽로213,,,오마중,031-606-9100,미개방,미개방,13:00,18:00,9:00,18:00,9:00,18:00,9:00,18:00,,
경기도,원당중,부설,경기도 고양시 덕양구 마상로1,,,원당중,031-960-1992,0:00,24:00,0:00,24:00,0:00,24:00,0:00,24:00,0:00,24:00, ,
경기도,일산동중,노상,경기도 고양시 일산서구 현중로 48,,,일산동중,031-914-0212,6:00,8:50,11:00,17:00,6:50,8:50,11:00,17:00,11:00,17:00, ,
경기도,일산양일중,부설,경기도 고양시 일산동구 식사동 위시티3로 47,,,일산양일중,031-960-1518,0:00,24:00,0:00,24:00,0:00,24:00,0:00,24:00,0:00,24:00, ,
경기도,일산중,부설,경기도 고양시 일산서구 원일로53,,,일산중,031-839-6900,0:00,24:00,0:00,24:00,0:00,24:00,0:00,24:00,0:00,24:00, ,
경기도,정발중,부설,경기도 고양시 일산동구 정발산로 115,,,정발중,031-902-3383,0:00,24:00,0:00,24:00,0:00,24:00,0:00,24:00,0:00,24:00, ,
경기도,중산중,부설,경기도 고양시 일산동구 탄중로 361,,,중산중,031-960-6300,7:00,17:00,7:00,17:00,7:00,17:00,7:00,17:00,7:00,17:00, ,
경기도,지도중,부설,경기도 고양시 덕양구 화정동 성신로 46,,,지도중,031-830-8000,0:00,24:00,0:00,24:00,0:00,24:00,0:00,24:00,0:00,24:00, ,
경기도,풍동중,부설,경기도 고양시 일산동구 숲속마을1로 101(풍동),,,풍동중,070-4323-6979,0:00,24:00,0:00,24:00,0:00,24:00,0:00,24:00,0:00,24:00,,
경기도,풍산중,부설,경기도 고양시 일산동구 숲속마을1로 33,,,풍산중,070-4912-0455,0:00,24:00,0:00,24:00,0:00,24:00,0:00,24:00,0:00,24:00, ,
경기도,한수중,부설,경기도 고양시 일산서구 주엽로 117,,,한수중,031-929-4701,0:00,8:30,0:00,24:00,0:00,24:00,0:00,8:30,0:00,24:00,,
경기도,현산중,부설,경기도 고양시 일산서구 일청로 85,,,현산중,031-910-8305,8:00,17:00,8:00,17:00,미개방,미개방,미개방,미개방,미개방,미개방,,
경기도,화정중,부설,경기도 고양시 덕양구 화신로 343,,,화정중,031-930-1901,0:00,24:00,0:00,24:00,0:00,24:00,0:00,24:00,0:00,24:00, ,
경기도,고양제일중,부설,경기도 고양시 덕양구 통일로 820,,,고양제일중,031-962-8392,0:00,24:00,0:00,24:00,0:00,24:00,0:00,24:00,0:00,24:00, ,
경기도,가좌고,부설,경기도 고양시 일산서구 가좌1로 43,,,가좌고,031-910-1999,9:00,18:00,9:00,18:00,9:00,18:00,9:00,18:00,9:00,18:00, ,
경기도,경기영상과학고,부설,경기도 고양시 일산서구 강선로 8,,,경기영상과학고,031-919-1160,미개방,미개방,13:00,22:00,미개방,미개방,13:00,22:00,13:00,22:00,,
경기도,고양고,부설,경기도 고양시 덕양구 삼송로 171,,,고양고,02-350-5710,0:00,24:00,0:00,24:00,0:00,24:00,0:00,24:00,0:00,24:00, ,
경기도,고양국제고,부설,경기도 고양시 일산동구 위시티4로 112,,,고양국제고,070-4322-1359,8:30,20:30,8:30,20:30,8:30,20:30,8:30,20:30,8:30,20:30,,
경기도,고양동산고,부설,경기도 고양시 덕양구 동세로20,,,고양동산고,02-381-0098,0:00,24:00,0:00,24:00,0:00,24:00,0:00,24:00,0:00,24:00, ,
경기도,고양일고,부설,경기도 고양시 덕양구 읍내로13,,,고양일고,031-969-6657,0:00,24:00,0:00,24:00,0:00,24:00,0:00,24:00,0:00,24:00, ,
경기도,능곡고,부설,경기도 고양시 덕양구 지도로76,,,능곡고,031-972-1939,0:00,24:00,0:00,24:00,0:00,24:00,0:00,24:00,0:00,24:00, ,
경기도,대화고,부설,경기도 고양시 일산서구 대화로 100,,,대화고,031-911-1964,9:00,18:00,미개방,미개방,9:00,18:00,미개방,미개방,9:00,18:00,,
경기도,덕이고,부설,경기도 고양시 일산서구 하이파크1로 64,,,덕이고,031-960-3698,0:00,24:00,0:00,24:00,0:00,24:00,0:00,24:00,0:00,24:00, ,
경기도,도래울고,부설,경기도 고양시 덕양구 도래울1로 67,,,도래울고,070-5055-4677,8:00,18:00,8:00,18:00,8:00,18:00,8:00,18:00,8:00,18:00, ,
경기도,백마고,부설,경기도 고양시 일산동구 백석로 155,,,백마고,031-906-2427,0:00,24:00,0:00,24:00,0:00,24:00,0:00,24:00,0:00,18:00,,
경기도,백석고,부설,경기도 고양시 일산동구 강촌로 115,,,백석고,031-901-0507,0:00,24:00,0:00,24:00,0:00,24:00,0:00,24:00,0:00,24:00, ,
경기도,백신고,부설,경기도 고양시 일산동구 백석로8,,,백신고,031-903-4903,6:00,19:00,6:00,19:00,6:00,19:00,6:00,19:00,6:00,19:00, ,
경기도,서정고,부설,경기도 고양시 덕양구 서정마을2로 39,,,서정고,031-930-3900,미개방,미개방,미개방,미개방,미개방,미개방,0:00,18:00,0:00,18:00,,
경기도,성사고,부설,경기도 고양시 덕양구 호국로 869,,,성사고,031-960-9105,0:00,24:00,0:00,24:00,미개방,미개방,0:00,24:00,0:00,24:00,,
경기도,신일비즈니스고,부설,경기도 고양시 일산서구 킨텍스로 452,,,신일비즈니스고,031-929-2106,0:00,24:00,0:00,24:00,0:00,24:00,0:00,24:00,0:00,22:00,,
경기도,안곡고,부설,경기도 고양시 일산동구 하늘마을로 75,,,안곡고,031-929-2809,8:00,19:00,미개방,미개방,8:00,19:00,8:00,19:00,8:00,19:00,,
경기도,일산고,부설,경기도 고양시 일산서구 원일로 53,,,일산고,031-975-2487,0:00,24:00,0:00,24:00,0:00,24:00,0:00,24:00,0:00,24:00, ,
경기도,일산국제컨벤션고,부설,경기도 고양시 일산서구 고봉로 133,,,일산국제컨벤션고,031-912-8034,9:00,18:00,9:00,18:00,9:00,18:00,9:00,18:00,9:00,18:00,,
경기도,일산동고,부설,경기도 고양시 일산서구 탄현로100,,,일산동고,031-915-0524,6:00,19:00,6:00,19:00,6:00,19:00,6:00,19:00,6:00,19:00, ,
경기도,저동고,부설,경기도 고양시 일산동구 무궁화로 165,,,저동고,031-917-0678,6:00,19:00,6:00,16:00,6:00,19:00,6:00,19:00,6:00,19:00,,
경기도,저현고,부설,경기도 고양시 일산동구 위시티3로 37,,,저현고,031-960-1800,0:00,24:00,0:00,24:00,0:00,24:00,0:00,24:00,0:00,24:00,,
경기도,정발고,부설,경기도 고양시 일산동구 정발산로 185,,,정발고,031-904-2327,0:00,24:00,0:00,24:00,0:00,24:00,0:00,24:00,0:00,24:00, ,
경기도,주엽고,부설,경기도 고양시 일산서구 킨텍스로 341 대화동,,,주엽고,031-910-3800,6:00,21:00,6:00,21:00,6:00,21:00,6:00,21:00,6:00,21:00, ,
경기도,풍동고,부설,경기도 고양시 일산동구 숲속마을로 119,,,풍동고,031-926-6000,9:00,17:00,15:30,17:00,9:00,17:00,9:00,17:00,9:00,17:00,,
경기도,행신고,부설,경기도 고양시 덕양구 소만로 36,,,행신고,031-974-6292,7:00,17:00,미개방,미개방,17:00,24:00,17:00,24:00,17:00,24:00,,
경기도,화수고,부설,경기도 고양시 덕양구 화수로 51,,,화수고,031-960-4500,미개방,미개방,8:30,24:00,미개방,미개방,8:30,24:00,0:00,24:00,,
경기도,화정고,부설,경기도 고양시 덕양구 화정로 17,,,화정고,031-930-0627,0:00,24:00,0:00,24:00,0:00,24:00,0:00,24:00,0:00,24:00,9/23일 07~11시 사용불가,
경기도,고양외국어고,노상,경기도 고양시 덕양구 관산동 통일로 820,,,고양외국어고,031-964-7475,8:00,18:00,8:00,18:00,17:00,18:00,8:00,18:00,8:00,18:00, ,
경기도,세원고,부설,경기도 고양시 일산동구 숲속마을로 202,,,세원고,031-965-1300,6:00,17:00,6:00,17:00,6:00,17:00,6:00,17:00,6:00,17:00, ,
경기도,일산대진고,노상,경기도 고양시 일산서구 대산로 246,,,일산대진고,070-5202-0790,0:00,24:00,0:00,24:00,0:00,24:00,0:00,24:00,0:00,24:00,,
경기도,밝은학교,노외,경기도 고양시 일산서구 대화로 37번길 104-9,,,밝은학교,031-911-7060,0:00,24:00,0:00,24:00,0:00,24:00,0:00,24:00,0:00,24:00,,
경기도,홀트학교,부설,경기도 고양시 일산서구 탄현동42,,,홀트학교,031-915-2913,9:00,17:00,9:00,17:00,9:00,17:00,9:00,17:00,9:00,17:00, ,
경기도,광명교육지원청,부설,경기도 광명시 광명로 777,,,광명교육지원청,02-2610-0500,00:00,24:00,00:00,24:00,00:00,24:00,00:00,24:00,00:00,24:00,,
경기도,밝은빛유,부설,경기도 광명시 오리로 402,,,밝은빛유,02-899-8431,9:00,18:00,09:00,18:00,09:00,18:00,09:00,18:00,09:00,18:00,,
경기도,가림초,부설,경기도 광명시 금당로 11-7,,,가림초,02-803-3328,미개방,미개방,08:40,21:00,미개방,미개방,06:00,21:00,06:00,21:00,,
경기도,광명광덕초,부설,경기도 광명시 오리로 841번길 9,,,광명광덕초,02-2616-4148,미개방,미개방,09:00,18:00,미개방,미개방,09:00,18:00,09:00,18:00,,
경기도,광명광성초,부설,경기도 광명시 철산로 59,,,광명광성초,02-2687-5243,00:00,24:00,00:00,24:00,17:00,24:00,00:00,24:00,00:00,24:00,,
경기도,광명동초,부설,경기도 광명시 연서일로 25,,,광명동초,02-2616-6259,미개방,미개방,09:00,19:00,미개방,미개방,09:00,19:00,09:00,19:00,,
경기도,광명북초,부설,경기도광명시 시청로138번길8,,,광명북초,02-2687-5931,00:00,24:00,00:00,24:00,미개방,미개방,00:00,24:00,00:00,24:00,,
경기도,광명서초,부설,경기도 광명시 너부대로5,,,광명서초,02-2686-0968,미개방,미개방,미개방,미개방,08:40,19:00,08:40,19:00,08:40,19:00,,
경기도,광명초,부설,경기도 광명시 광이로 21,,,광명시청,02-2680-6833,미개방,미개방,10:00,17:00,미개방,미개방,미개방,미개방,미개방,미개방,,
경기도,구름산초,부설,경기도 광명시 한내일로 5,,,구름산초,02-899-9832,9:00,18:00,9:00,18:00,9:00,18:00,9:00,18:00,9:00,18:00,,
경기도,도덕초,부설,경기 광명시 가마산로 28,,,도덕초,02-2616-9288,미개방,미개방,09:00,19:00,미개방,미개방,09:00,19:00,09:00,19:00,,
경기도,서면초,부설,경기도 광명시 오리로 402,,,서면초,02-899-5578,8:40,16:40,8:40,16:40,8:40,16:40,8:40,16:40,8:40,16:40,,
경기도,연서초,부설,경기도 광명시 안현로 80-2,,,연서초,02-892-5084,미개방,미개방,미개방,미개방,09:00,17:00,09:00,17:00,09:00,17:00,,
경기도,온신초,부설,경기도 광명시 범안로 657,,,온신초,02-2612-1954,08:40,16:40,08:40,16:40,16:40,18:00,08:40,16:40,08:40,16:40,,
경기도,충현초,부설,경기도 광명시 성채안로 16,,,충현초,02-898-4100,00:00,24:00,00:00,24:00,00:00,24:00,00:00,24:00,00:00,24:00,,
경기도,하안남초,부설,경기도 광명시 금당로 71,,,하안남초,02-893-2084,00:00,16:30,16:30,24:00,00:00,8:30,8:30,24:00,00:00,24:00,,
경기도,하안초,부설,경기도 광명시 안현로 16,,,하안초,02-806-1238,미개방,미개방,미개방,미개방,미개방,미개방,09:00,18:00,09:00,18:00,,
경기도,가림중,부설,경기도 광명시 오리로 616,,,가림중,02-6917-0100,0:00,24:00,00:00,24:00,00:00,24:00,00:00,24:00,00:00,24:00,,
경기도,광남중,부설,경기도 광명시 광명로 785,,,광남중학교,02-2614-9595,07:30,21:30,미개방,미개방,미개방,미개방,07:30,21:30,07:30,21:30,,
경기도,광명북중,부설,경기도 광명시 시청로 121,,,광명북중,02-2687-3802,06:00,20:00,06:00,20:00,06:00,20:00,06:00,20:00,06:00,20:00,,
경기도,광명중,부설,경기도 광명시 오리로876번길27,,,광명중,02-2684-3668,미개방,미개방,미개방,미개방,미개방,미개방,08:40,24:00,00:00,24:00,,
경기도,광문중,부설,경기도 광명시 덕단이로 43,,,광문중,02-2619-1727,미개방,미개방,09:00,17:00,미개방,미개방,09:00,17:00,09:00,17:00,,
경기도,안서중,부설,경기도 광명시 기아로13번안길 9-9,,,안서중,02-6911-4109,00:00,08:40,08:40,24:00,00:00,08:40,08:40,24:00,00:00,24:00,,
경기도,철산중,부설,경기도 광명시 철망산로 71,,,철산중,02-2610-4500,6:00,19:00,6:00,19:00,6:00,19:00,6:00,19:00,6:00,19:00,,
경기도,하안북중,부설,경기도광명시가림로22 ,,,하안북중,02-898-3821,8:00,18:00,미개방,미개방,미개방,미개방,8:00,18:00,8:00,18:00,,
경기도,광명경영회계고,부설,경기도 광명시 기아로13번안길 9-9,,,광명경영회계고,02-898-3395,00:00,24:00,00:00,24:00,17:00,24:00,00:00,24:00,00:00,24:00,,
경기도,광명고,부설,경기도 광명시 오리로876번길 17,,,광명고,02-2680-0507,미개방,미개방,08:00,일몰시,미개방,미개방,08:00,일몰시,08:00,일몰시,,
경기도,광명공업고등학교,부설,경기도 광명시 새터안로 20,,,광명공업고,02-2613-0024,00:00,24:00,00:00,24:00,00:00,24:00,00:00,24:00,00:00,24:00,,
경기도,광명북고,부설,경기도 광명시 시청로 127,,,광명북고,02-2615-9528,00:00,24:00,00:00,24:00,00:00,24:00,00:00,24:00,00:00,24:00,,
경기도,광휘고,부설,경기도 광명시 서원로 41,,,광휘고,070-4687-5705,0:00,08:50,12:00,24:00,00:00,08:50,08:50,24:00,00:00,24:00,,
경기도,운산고,부설,경기도 광명시 한내일로 17,,,운산고,02-2610-3000,00:00,24:00,00:00,24:00,00:00,24:00,00:00,24:00,00:00,24:00,,
경기도,충현고,부설,경기도 광명시 오리로 348. 62,,,충현고,02-6922-6100,00:00,24:00,00:00,24:00,00:00,24:00,00:00,24:00,00:00,24:00,,
경기도,경안초,부설,경기도 광주시 경안로 163,,,경안초,031-762-9359,미개방,미개방,08:30,24:00,00:00,24:00,00:00,24:00,00:00,24:00,,
경기도,곤지암초,부설,경기도광주시곤지암읍곤지암로70-13,,,곤지암초,031-764-9286,00:00,24:00,00:00,24:00,00:00,24:00,00:00,24:00,00:00,24:00,,
경기도,광주도평초,부설,경기도 광주시 초월읍 현산로 89-16,,,광주도평초,031-7665-1695,00:00,24:00,00:00,24:00,00:00,24:00,00:00,24:00,00:00,24:00,,
경기도,광주매곡초,부설,경기도 광주시 오포읍 양벌로 303-5,,,광주매곡초,031-765-6416,09:00,24:00,00:00,24:00,00:00,24:00,00:00,24:00,00:00,22:00,,
경기도,광주초,부설,경기도 광주시 중앙로 123번길 22,,,광주초,031-799-1994,00:00,24:00,00:00,24:00,미개방,미개방,00:00,24:00,00:00,24:00,,
경기도,나룰초,부설,경기도 하남시 덕풍북로 260,,,나룰초,031-796-7340,00:00,24:00,00:00,24:00,00:00,24:00,00:00,24:00,00:00,24:00,,
경기도,덕풍초,부설,경기도 하남시 덕풍공원로 20,,,덕풍초,031-793-4498,00:00,24:00,00:00,24:00,00:00,24:00,00:00,24:00,00:00,24:00,,
경기도,도궁초,부설,경기도 광주시 도척면 도척윗로 270,,,도궁초,031-762-5828,00:00,08:30,00:00,24:00,00:00,08:30,00:00,24:00,00:00,24:00,,
경기도,도척초,노상,경기도 광주시 도척면 노곡로 33,,,도척초,031-761-3659,00:00,24:00,00:00,24:00,17:00,24:00,00:00,24:00,00:00,24:00,,
경기도,동부초,부설,경기도 하남시 역말로 55,,,동부초,031-792-4750,미개방,미개방,08:40,22:00,미개방,미개방,08:40,22:00,08:40,22:00,,
경기도,만선초,부설,경기도 광주시 곤지암읍 상탑길9,,,만선초,031-762-6800,00:00,24:00,00:00,24:00,00:00,24:00,00:00,24:00,00:00,24:00,,
경기도,망월초,부설,경기도 하남시 미사강변북로 24번길 10,,,망월초,031-8026-8770/6,08:30,24:00,00:00,24:00,00:00,24:00,00:00,24:00,00:00,24:00,,
경기도,번천초,부설,경기도 광주시 남한산성면 해공로 82,,,번천초,031-761-2974,13:00,24:00,00:00,24:00,00:00,24:00,00:00,24:00,00:00,24:00,,
경기도,벌원초,부설,경기도 광주시 회안대로 621-36,,,벌원초,031-798-9165,00:00,24:00,00:00,24:00,00:00,24:00,00:00,24:00,00:00,24:00,,
경기도,산곡초,부설,경기도 하남시 하남대로302번길 45,,,산곡초,031-793-5578,미개방,미개방,08:30,16:30,미개방,미개방,08:30,16:30,08:30,16:30,,
경기도,서부초,부설,경기도 하남시 서하남로 161,,,서부초,02-485-0090,00:00,24:00,00:00,24:00,17:00,24:00,00:00,24:00,00:00,24:00,,
경기도,선동초,부설,경기도 광주시 초월읍 동막골길 5,,,선동초,031-797-0668,07:30,22:00,07:30,22:00,07:30,22:00,07:30,22:00,07:30,22:00,,
경기도,신장초,노상,경기도 하남시 신평로100,,,신장초,031-790-9783,00:00,24:00,00:00,24:00,00:00,24:00,00:00,24:00,00:00,24:00,,
경기도,쌍령초,부설,경기도 광주시 경충대로 1422번길 71,,,쌍령초,031-797-5537,00:00,24:00,00:00,24:00,00:00,24:00,00:00,24:00,00:00,24:00,,
경기도,양벌초,부설,경기도 광주시 오포읍 양벌로 195-15,,,양벌초,031-798-4910,미개방,미개방,00:00,24:00,미개방,미개방,00:00,24:00,00:00,24:00,,
경기도,역동초,부설,경기도 광주시 순암로 36번길 45,,,역동초,031-762-6505,00:00,24:00,00:00,24:00,00:00,24:00,00:00,24:00,00:00,24:00,,
경기도,초월초,부설,경기도 광주시 초월읍 산수로 523,,,초월초,031-761-1159,00:00,24:00,00:00,24:00,00:00,24:00,00:00,24:00,00:00,24:00,,
경기도,탄벌초,부설,경기도 광주시 이배재로 20-12,,,탄벌초,031-768-8784,미개방,미개방,08:30,17:00,미개방,미개방,08:30,17:00,08:30,17:00,,
경기도,태성초,부설,경기도 광주시 태성로 37,,,태성초,031-5182-6400,미개방,미개방,08:00,18:00,미개방,미개방,08:00,18:00,08:00,18:00,,
경기도,태전초,부설,경기도 광주시 태봉로 56,,,태전초,031-764-4294,08:40,16:40,08:40,16:40,미개방,미개방,08:40,16:40,08:40,16:40,,
경기도,하남천현초,부설,경기도 하남시 천현로 45,,,하남천현초,031-790-7092,미개방,미개방,미개방,미개방,00:00,24:00,00:00,24:00,00:00,24:00,,
경기도,하남초,부설,경기도 하남시 천현로 109,,,하남초,031-793-8032,00:00,24:00,00:00,24:00,00:00,24:00,00:00,24:00,00:00,24:00,,
경기도,하남풍산초,부설,경기도 하남시 덕풍북로 100,,,하남풍산초,031-795-2806,08:00,19:00,08:00,19:00,08:00,19:00,08:00,19:00,08:00,19:00,,
경기도,경안중,부설,경기도 광주시 장지1길 6,,,경안중,031-763-4214,09:00,22:00,09:00,22:00,09:00,22:00,09:00,22:00,09:00,22:00,,
경기도,경화여중,노상,경기도 광주시 수하길 11번길 43,,,경화여중,031-799-0690,00:00,24:00,미개방,미개방,00:00,24:00,00:00,24:00,00:00,24:00,,
경기도,광수중,부설,경기도 광주시 퇴촌면 도수길23번길 23,,,광수중,031-768-3103,00:00,24:00,00:00,24:00,00:00,24:00,00:00,24:00,00:00,24:00,,
경기도,광일중,부설,경기도 광주시 도척면 노곡로 32,,,광일중,031-762-5013,00:00,24:00,00:00,24:00,00:00,24:00,00:00,24:00,00:00,24:00,,
경기도,광주중,부설,경기도 광주시 경안동42번길11,,,광주중,031-761-2255,00:00,24:00,00:00,24:00,00:00,24:00,00:00,24:00,00:00,24:00,,
경기도,동부중,노상,경기도 하남시 신평로 15,,,동부중,031-790-9200,미개방,미개방,07:00,19:00,미개방,미개방,07:00,19:00,07:00,19:00,,
경기도,매양중,부설,경기도 광주시 오포읍 양벌로 331-20,,,매양중,031-799-4300,00:00,24:00,00:00,24:00,00:00,24:00,00:00,24:00,00:00,24:00,,
경기도,미사강변중,부설,경기도 하남시 미사강변한강로 89,,,미사강변중,031-8026-0519,미개방,미개방,08:40,24:00,미개방,미개방,08:40,24:00,00:00,24:00,,
경기도,미사중학교,부설,경기도하남시 미사강변한강로334번길70,,,미사중학교,031-8026-0808,12:00,24:00,12:00,24:00,12:00,24:00,12:00,24:00,12:00,24:00,,
경기도,신평중,부설,경기도 하남시 신장동로 57,,,신평중,031-796-2195,미개방,미개방,미개방,미개방,미개방,미개방,09:00,20:00,09:00,20:00,,
경기도,윤슬중,부설,경기도 하남시 풍산로 168,,,윤슬중,031-8026-2600,미개방,미개방,미개방,미개방,미개방,미개방,06:00,18:00,06:00,18:00,,
경기도,은가람중,부설,경기도 하남시 미사강변한강로9,,,은가람중,031-8026-8415,00:00,24:00,00:00,24:00,00:00,24:00,00:00,24:00,00:00,24:00,,
경기도,초월중,부설,경기 광주시 초월읍 도곡길21번길 28,,,초월중,031-799-4708,미개방,미개방,16:40,21:30,미개방,미개방,16:40,21:30,16:40,21:30,,
경기도,경화여고,노외,경기도 광주시 수하길 11번길 43,,,경화여고,031-799-0500,00:00,24:00,17:00,24:00,00:00,24:00,00:00,24:00,00:00,24:00,,
경기도,경화여자English Business고,부설,경기도 광주시 수하길 11번길 43,,,경화여자English Business고,031-799-0600,00:00,24:00,00:00,24:00,00:00,24:00,00:00,24:00,00:00,24:00,,
경기도,광주고,부설,경기도 광주시 수하길19번길 43,,,광주고,031-799-7210,00:00,24:00,00:00,24:00,17:00,24:00,00:00,24:00,00:00,24:00,,
경기도,광주중앙고,부설,경기도 광주시 역동로 63번길1,,,광주중앙고,031-799-7303,00:00,24:00,00:00,24:00,17:00,24:00,00:00,24:00,00:00,24:00,   ,
경기도,미사강변고,부설,경기도 하남시 미사강변한강로75,,,미사강변고,031-8026-1490,미개방,미개방,09:00,24:00,미개방,미개방,09:00,24:00,00:00,16:50,,
경기도,미사고,노상,경기도 하남시 미사강변한강로 210,,,미사고,031-8026-8545,00:00,24:00,00:00,24:00,00:00,24:00,00:00,24:00,00:00,24:00,,
경기도,위례고,부설,경기도 하남시 위례순환로 323,,,위례고,02-6966-1706,00:00,24:00,18:00,24:00,00:00,24:00,00:00,24:00,00:00,24:00,,
경기도,풍산고,부설,경기도 하남시 덕풍서로 11,,,풍산고,031-790-0905,00:00,24:00,00:00,24:00,17:00,24:00,00:00,24:00,00:00,24:00,,
경기도,하남경영고,부설,경기도 하남시 창우동 대청로116번길 11,,,하남경영고등학교,031-795-6306,09:00,18:00,09:00,18:00,09:00,18:00,09:00,18:00,09:00,18:00,,
경기도,한사랑학교,노상,경기도 광주시 초월읍 산수로 554번길 59-12,,,한사랑학교,031-762-4891,00:00,24:00,00:00,24:00,00:00,24:00,00:00,24:00,00:00,24:00,,
경기도,갈뫼초,부설,경기도 의왕시 갈미로 27(내손동),,,갈뫼초,031-426-6704,0:00,24:00,0:00,24:00,0:00,8:30,8:30,24:00,0:00,24:00,,
경기도,광정초,부설,군포시 산본로386번길 5-20,,,광정초,031-391-2293,6:00,17:00,6:00,17:00,6:00,19:00,6:00,19:00,6:00,19:00,,
경기도,군포신기초,부설,경기도 군포시 삼성로28번길 3,,,군포신기초,"070-4639-5629,5607",9:00,18:00,9:00,18:00,9:00,18:00,9:00,18:00,9:00,18:00,,
경기도,군포양정초,부설,경기도 군포시 오금로 131,,,군포양정초,031-396-5986,0:00,24:00,0:00,24:00,미개방,미개방,0:00,24:00,0:00,24:00,,
경기도,군포옥천초,부설,경기도 군포시 용호2로 54번길 12,,,군포옥천초,398-7986,6:00,18:00,6:00,18:00,6:00,18:00,6:00,18:00,6:00,18:00,,
경기도,군포초,부설,경기도 군포시 군포로 463,,,군포초,031-398-4239,0:00,16:40,미개방,미개방,16:40,24:00,0:00,24:00,0:00,24:00,,
경기도,군포화산초,부설,경기도 군포시 오금로 48,,,군포화산초,031-391-3362,미개방,미개방,0:00,24:00,0:00,24:00,미개방,미개방,0:00,24:00,,
경기도,궁내초,부설,경기도 군포시 수리산로187,,,궁내초,031-396-0074,0:00,8:30,8:30,24:00,0:00,8:30,8:30,24:00,16:30,24:00,,
경기도,금정초,부설,경기도 군포시 금정로 40,,,금정초,031-453-1624,0:00,24:00,0:00,24:00,0:00,24:00,0:00,24:00,0:00,24:00,,
경기도,내동초,부설,경기도 의왕시 내손로 101.,,,내동초,031-422-9703,미개방,미개방,9:00,19:00,미개방,미개방,9:00,19:00,9:00,19:00,,
경기도,내손초,부설,경기도 의왕시 내손순환로 175,,,내손초,031-425-5681,9:00,17:00,미개방,미개방,미개방,미개방,12:00,17:00,9:00,17:00,,
경기도,능내초,부설,경기도 군포시 수리산로 37,,,능내초,031-391-4494,미개방,미개방,11:00,18:00,미개방,미개방,8:30,18:00,8:30,17:00,,
경기도,당정초,부설,경기도 군포시 고산로 151번길 26-24,,,당정초,031-455-5634,0:00,24:00,0:00,24:00,0:00,24:00,0:00,24:00,0:00,24:00,,
경기도,덕장초,부설,경기도 의왕시 청계동 덕장로 33,,,덕장초,031-422-0092,8:00,19:00,8:00,19:00,8:00,19:00,8:00,19:00,8:00,19:00,,
경기도,도장초,부설,경기도 군포시 번영로 371,,,도장초,031-391-2253,6:00,22:00,6:00,22:00,6:00,22:00,미개방,미개방,9:00,22:00,,
경기도,둔대초,부설,군포시 호수로 305-14,,,둔대초,031-437-6406,0:00,24:00,0:00,24:00,0:00,24:00,0:00,24:00,0:00,24:00,,
경기도,둔전초,부설,경기도 군포시 고산로 542,,,둔전초,031-391-4633,0:00,24:00,0:00,24:00,0:00,24:00,0:00,24:00,0:00,24:00,,
경기도,백운초,부설,경기도 의왕시 백운초등길 4,,,백운초,031-421-3719,0:00,24:00,0:00,24:00,0:00,24:00,0:00,24:00,0:00,24:00,,
경기도,부곡중앙초,부설,경기도 군포시 송부로 273번길 7,,,부곡중앙초,031-462-0653,8:00,18:00,8:00,18:00,8:00,18:00,8:00,18:00,8:00,18:00,,
경기도,산본초,부설,경기도 군포시 산본로386번길 60,,,산본초,031-394-6511,0:00,24:00,0:00,24:00,0:00,24:00,0:00,24:00,0:00,24:00,,
경기도,수리초,부설,경기도 군포시 수리산로 125,,,수리초,031-395-0094,0:00,24:00,0:00,24:00,0:00,24:00,0:00,24:00,0:00,24:00,,
경기도,신흥초,부설,경기도 군포시 고산로470,,,신흥초,031-395-0124,0:00,24:00,0:00,24:00,0:00,24:00,0:00,24:00,0:00,24:00,,
경기도,오금초,부설,경기도 군포시 번영로 366,,,오금초,031-394-8570,0:00,24:00,미개방,미개방,0:00,24:00,미개방,미개방,0:00,24:00,,
경기도,오전초,부설,경기도 의왕시 찬우물길 49,,,오전초,031-459-0373,0:00,24:00,0:00,24:00,0:00,24:00,0:00,24:00,0:00,24:00,,
경기도,왕곡초,부설,경기도 의왕시 왕곡로 58,,,왕곡초,031-459-2156,0:00,24:00,0:00,24:00,0:00,24:00,0:00,24:00,0:00,24:00,,
경기도,용호초,부설,경기도 군포시 용호2로 12,,,용호초,031-398-4383,9:30,16:30,미개방,미개방,미개방,미개방,9:30,16:30,9:30,16:30,,
경기도,의왕덕성초,부설,경기도 의왕시 덕영대로 123,,,의왕덕성초,031-462-9315,0:00,24:00,0:00,24:00,0:00,24:00,0:00,24:00,0:00,18:00,,
경기도,의왕부곡초,부설,경기도 의왕시 철도박물관로 143,,,의왕부곡초,031-461-0669,미개방,미개방,7:00,19:00,미개방,미개방,7:00,19:00,7:00,19:00,,
경기도,의왕초,부설,경기도 의왕시 모락로 56,,,의왕초,031-457-5740,0:00,24:00,0:00,24:00,0:00,24:00,0:00,24:00,0:00,24:00,,
경기도,포일초,부설,경기도 의왕시 포일세거리로 51,,,포일초,031-422-0244,0:00,24:00,0:00,24:00,0:00,24:00,0:00,24:00,0:00,24:00,,
경기도,한얼초,부설,경기도 군포시 산본천로 136,,,가화개발(BTL),031-397-8712,0:00,24:00,0:00,24:00,0:00,24:00,0:00,24:00,0:00,24:00,,
경기도,갈뫼중,부설,경기도 의왕시 갈미로 61(내손동),,,갈뫼중,031-425-3215,0:00,8:40,0:00,24:00,0:00,24:00,0:00,24:00,0:00,24:00,,
경기도,고천중,부설,경기도 의왕시 백운로25,,,고천중,031-458-8626,00:00,24:00,00:00,24:00,00:00,24:00,00:00,24:00,00:00,24:00,,
경기도,군포중,부설,경기도 군포시 당동 735,,,군포중,031-452-0438,09:00,24:00,0:00,24:00,미개방,미개방,09:00,24:00,0:00,24:00,,
경기도,궁내중,부설,경기도 군포시 수리산로 171,,,궁내중,031-396-0034,0:00,24:00,미개방,미개방,0:00,24:00,0:00,24:00,0:00,24:00,,
경기도,금정중,부설,경기도 군포시 오금로114,,,금정중,031-688-4170,6:00,8:30,8:30,20:00,6:00,8:30,8:30,20:00,6:00,20:00,,
경기도,당동중,부설,경기도 군포시 용호1로 21번길 12,,,당동중,031-391-6771,0:00,16:30,미개방,미개방,16:30,24:00,0:00,24:00,0:00,24:00,,
경기도,당정중,부설,경기도 군포시 이당로 152,,,당정중,031-459-7614,미개방,미개방,0:00,24:00,미개방,미개방,0:00,24:00,0:00,24:00,,
경기도,덕장중,부설,경기도 의왕시 덕장로 55,,,덕장중,070-7123-3796,미개방,미개방,0:00,24:00,0:00,24:00,0:00,24:00,미개방,미개방,,
경기도,도장중,부설,경기도 군포시 고산로 460,,,도장중,031-5183-2390,미개방,미개방,7:00,19:00,미개방,미개방,7:00,19:00,7:00,19:00,,
경기도,모락중,부설,경기도 의왕시 모락로 110,,,모락중,031-456-7293,미개방,미개방,미개방,미개방,9:00,18:00,9:00,18:00,9:00,18:00,,
경기도,백운중,부설,경기도 의왕시 안양판교로 168,,,백운중,031-425-3421,7:00,24:00,0:00,24:00,0:00,24:00,0:00,24:00,0:00,19:00,,
경기도,부곡중앙중,부설,경기도 군포시 송부로 241,,,부곡중앙중,031-461-2215,0:00,24:00,0:00,24:00,0:00,24:00,0:00,24:00,0:00,24:00,,
경기도,산본중,부설,경기도 군포시 산본로 432번길17,,,산본중,031-393-7703,0:00,24:00,0:00,24:00,0:00,24:00,0:00,24:00,0:00,24:00,,
경기도,수리중,부설,경기도 군포시 수리산로 139,,,수리중,031-390-4204,미개방,미개방,미개방,미개방,9:00,18:00,9:00,18:00,9:00,18:00,,
경기도,용호중,부설,경기도 군포시 용호2로 54번길 14,,,용호중,031-398-4361,미개방,미개방,9:00,24:00,미개방,미개방,9:00,24:00,0:00,24:00,,
경기도,의왕중,부설,경기도 의왕시 등칙골길28,,,의왕중,031-453-8951,0:00,24:00,0:00,24:00,0:00,24:00,0:00,24:00,0:00,24:00,,
경기도,흥진중,부설,경기도 군포시 오금로 15-35,,,흥진중,031-390-5137,9:00,24:00,00:00,24:00,00:00,24:00,00:00,24:00,00:00,18:00,,
경기도,군포e비즈니스고,부설,경기도 군포시 수리산로 153,,,군포e비즈니스고,031-390-5308,9:00,17:00,미개방,미개방,미개방,미개방,9:00,19:00,9:00,19:00,,
경기도,군포중앙고,부설,경기도 군포시 송부로 239,,,군포중앙고,070-4688-3500,0:00,24:00,0:00,24:00,0:00,24:00,0:00,24:00,0:00,24:00,,
경기도,산본고,부설,경기도 군포시 산본로 451-12,,,산본고,031-930-8461,9:00,22:00,8:30,22:00,9:00,22:00,9:00,22:00,9:00,22:00,,
경기도,수리고,부설,경기도 군포시 수리산로 39,,,수리고,031-390-1209,0:00,24:00,미개방,미개방,0:00,24:00,0:00,24:00,0:00,24:00,,
경기도,의왕고,부설,경기도 의왕시 덕영대로115,,,의왕고,031-462-9773,0:00,24:00,0:00,24:00,0:00,24:00,0:00,24:00,0:00,24:00,,
경기도,흥진고,부설,경기도 군포시 오금로15-17,,,흥진고,031-390-4100,0:00,24:00,0:00,24:00,0:00,24:00,0:00,24:00,0:00,24:00,,
경기도,경기외고,부설,경기도 의왕시 고산로 105번길 30,,,경기외고,031-361-0525,00:00,24:00,00:00,24:00,미개방,미개방,00:00,24:00,미개방,미개방,,
경기도,우성고,부설,경기도 의왕시 오전로 37,,,우성고,031-361-9100,5:00,23:00,5:00,23:00,5:00,23:00,5:00,23:00,5:00,23:00,,
경기도,동두천신천초,부설,경기도 동두천시 생연로 9번길 20,,,동두천신천초,031-858-8970,00:00,24:00,00:00,24:00,00:00,24:00,00:00,24:00,00:00,24:00,,
경기도,동두천초,부설,경기도 동두천시 평화로2460번길 4,,,동두천초,031-864-2009,00:00,20:30,08:30,24:00,00:00,20:30,08:30,24:00,00:00,24:00,,
경기도,보산초,부설,경기도 동두천시 중앙로 427,,,보산초,031-865-2643,00:00,24:00,00:00,24:00,00:00,24:00,00:00,24:00,00:00,24:00,,
경기도,소요초,부설,경기도 동두천시 봉동로 64,,,소요초,031-865-9273,06:00,20:00,06:00,20:00,06:00,20:00,06:00,20:00,06:00,20:00,,
경기도,이담초,부설,경기도 동두천시 이담로 21,,,이담초,031-859-9761,06:00,21:30,미개방,미개방,미개방,미개방,06:00,21:30,06:00,21:30,,
경기도,지행초,부설,경기도 동두천시 행선로 40,,,지행초,031-862-0779,00:00,24:00,00:00,24:00,00:00,24:00,00:00,24:00,00:00,24:00,,
경기도,탑동초,부설,경기도 동두천시 탑신로 61,,,탑동초,031-867-0983,09:00,20:00,09:00,20:00,09:00,20:00,09:00,20:00,09:00,20:00,,
경기도,양주유,부설,경기도 양주시 옥정동로 240,,,양주유,031-864-9262,00:00,24:00,00:00,24:00,00:00,24:00,00:00,24:00,00:00,24:00,,
경기도,가납초,부설,경기도 양주시 광적면 부흥로 793,,,가납초,031-836-2747,00:00,24:00,00:00,24:00,00:00,24:00,00:00,24:00,00:00,24:00,,
경기도,고암초,부설,경기도 양주시 고암길 320,,,고암초,031-858-5434,00:00,24:00,00:00,24:00,00:00,24:00,00:00,24:00,00:00,24:00,,
경기도,광사초,부설,경기도 양주시 고읍남로 191번길 12 ,,,광사초,031-856-0393,09:00,18:00,09:00,18:00,09:00,18:00,09:00,18:00,09:00,18:00,,
경기도,광숭초,부설,경기도 양주시 삼숭로58번길 100,,,광숭초,031-856-9671,07:00,24:00,07:00,24:00,미개방,미개방,07:00,24:00,07:00,24:00,,
경기도,남면초,부설,경기도 양주시 남면 개나리 18길 100,,,남면초,031-863-4506,00:00,24:00,00:00,24:00,00:00,24:00,00:00,24:00,00:00,24:00,,
경기도,남면초 양덕분교,부설,경기도 양주시 남면 은남로 119번길 373,,,남면초,031-863-4506,00:00,24:00,00:00,24:00,00:00,24:00,00:00,24:00,00:00,24:00,,
경기도,덕도초,부설,경기도 양주시 광적면 광적로224번길122,,,덕도초,031-855-6901,미개방,미개방,09:00,20:00,미개방,미개방,09:00,20:00,09:00,20:00,,
경기도,도둔초,부설,경기도 양주시 고덕로 89-1,,,도둔초,031-861-5194,00:00,24:00,00:00,24:00,00:00,24:00,00:00,24:00,00:00,24:00,,
경기도,만송초,부설,경기도 양주시 고읍로 117-32,,,만송초,031-856-0253,00:00,24:00,00:00,24:00,00:00,24:00,00:00,24:00,00:00,24:00,,
경기도,봉암초,부설,경기도 양주시 은현면 삼육사로 473,,,봉암초,031-863-1652,00:00,24:00,00:00,24:00,00:00,24:00,00:00,24:00,00:00,24:00,,
경기도,산북초,부설,경기도 양주시 평화로 1261번길 96-46,,,산북초,031-840-4132,미개방,미개방,미개방,미개방,08:30,18:00,08:30,18:00,08:30,18:00,,
경기도,삼상초,부설,경기도 양주시 장흥면 일여로 641,,,삼상초,031-855-5068,00:00,24:00,00:00,24:00,00:00,24:00,00:00,24:00,00:00,24:00,,
경기도,삼숭초,부설,경기도 양주시 삼숭로 38번길 112,,,삼숭초,031-840-7440,00:00,24:00,00:00,24:00,00:00,24:00,00:00,24:00,00:00,24:00,,
경기도,상패초,부설,양주시 은현면 은현로312번길 121-208,,,상패초,031-865-1304,00:00,24:00,00:00,24:00,미개방,미개방,08:30,24:00,00:00,24:00,,
경기도,양주덕현초,부설,경기도 양주시 부흥로 1989,,,양주덕현초,031-847-7370,미개방,미개방,00:00,24:00,00:00,24:00,00:00,24:00,00:00,24:00,,
경기도,양주백석초,부설,경기도 양주시 백석읍 중앙로 223번길 10-11,,,양주백석초,031-879-4803,미개방,미개방,09:00,17:00,09:00,17:00,09:00,17:00,미개방,미개방,,
경기도,연곡초,부설,경기도 양주시 백석읍 월암로170번길 107,,,연곡초,031-879-4355,00:00,24:00,00:00,24:00,미개방,미개방,08:30,24:00,00:00,24:00,,
경기도,옥정초,부설,경기도 양주시 옥정로5길 42-9,,,옥정초,031-86-9564,00:00,24:00,00:00,24:00,00:00,24:00,00:00,24:00,00:00,24:00,   ,
경기도,유양초,부설,경기도 양주시 부흥로 1373-7,,,유양초,031-840-0084,00:00,24:00,00:00,24:00,00:00,24:00,00:00,24:00,00:00,24:00,,
경기도,율정초,부설,경기도 양주시 옥정동로 245-41,,,율정초,031-859-8513,00:00,24:00,00:00,24:00,00:00,24:00,00:00,24:00,00:00,24:00,,
경기도,은봉초,부설,경기도 양주시 백석읍 꿈나무로 321,,,은봉초,031-826-8453,08:00,17:00,08:00,17:00,08:00,17:00,08:00,17:00,08:00,17:00,,
경기도,주원초,부설,경기도 양주시 고암길 242,,,주원초,031-860-6113,06:00,21:00,06:00,21:00,06:00,21:00,06:00,21:00,06:00,21:00,,
경기도,회정초,부설,경기도 양주시 평화로 1567,,,회정초,031-859-6212,00:00,24:00,00:00,24:00,00:00,24:00,00:00,24:00,00:00,24:00,,
경기도,회천초,부설,경기도 양주시 고암길 73,,,회천초,031-859-8893,00:00,24:00,00:00,24:00,00:00,24:00,00:00,24:00,00:00,24:00,   ,
경기도,효촌초,부설,경기도 양주시 광적면 화합로 248,,,효촌초,031-871-3172,00:00,24:00,00:00,24:00,00:00,24:00,00:00,24:00,00:00,24:00,,
경기도,동두천중,부설,경기도 동두천시 평화로2434번길8,,,동두천중,031-860-1473,00:00,24:00,00:00,24:00,00:00,24:00,00:00,24:00,00:00,18:00,,
경기도,보영여자중,부설,경기도 동두천시 동광로 124,,,보영여자중,070-5067-0069,08:00,17:00,08:00,17:00,08:00,17:00,08:00,17:00,08:00,17:00,,
경기도,생연중,부설,경기도 동두천시 생연로 46,,,생연중,031-857-9917,00:00,24:00,08:30,21:30,00:00,24:00,08:30,21:30,08:30,21:30,,
경기도,송내중앙중,부설,경기도 동두천시 중앙로78,,,송내중앙중,031-859-6315,00:00,24:00,00:00,24:00,00:00,24:00,00:00,24:00,00:00,24:00,,
경기도,신흥중,부설,경기도 동두천시 신천로 159,,,신흥중,031-865-3169,09:00,24:00,00:00,24:00,00:00,24:00,00:00,24:00,00:00,18:00,,
경기도,남문중,부설,경기도 양주시 남면 개나리 18길 1,,,남문중,031-863-6124,00:00,24:00,00:00,24:00,00:00,24:00,00:00,24:00,00:00,24:00,,
경기도,덕계중,부설,경기도 양주시 평화로1416번길 66-13,,,덕계중,031-865-0686,08:50,18:50,08:50,18:50,08:50,18:50,미개방,미개방,08:50,18:50,,
경기도,덕정중,부설,경기도 양주시 화합로 1397,,,덕정중,031-858-1074,09:00,17:00,09:00,17:00,미개방,미개방,09:00,17:00,09:00,17:00,,
경기도,삼숭중,부설,경기도 양주시 삼숭로38번길 136,,,삼숭중,031-840-8160,00:00,24:00,00:00,24:00,00:00,24:00,00:00,24:00,00:00,24:00,,
경기도,양주백석중,부설,경기도 양주시 백석읍 양주산성로 574번길 38,,,양주백석중,031-855-1203,00:00,24:00,00:00,24:00,미개방,미개방,미개방,미개방,00:00,24:00,,
경기도,회천중,부설,경기도 양주시 고암길 77,,,회천중,031-864-9460,00:00,24:00,00:00,24:00,00:00,24:00,00:00,24:00,00:00,24:00,,
경기도,동두천고,부설,경기도 동두천시 평화로2434번길 8,,,동두천고,031-860-1305,00:00,24:00,00:00,24:00,00:00,24:00,00:00,24:00,00:00,18:00,,
경기도,동두천외국어고,부설,경기도 동두천시 지행로 145,,,둉두천외국어고,031-864-9906,00:00,24:00,00:00,24:00,00:00,24:00,00:00,24:00,00:00,12:00,,
경기도,동두천중앙고,부설,경기도 동두천시 평화로2280,,,동두천중앙고,031-860-1205,00:00,24:00,00:00,24:00,00:00,24:00,00:00,24:00,00:00,24:00,,
경기도,보영여고,부설,경기도 동두천시 동광로 124,,,보영여고,070-5067-0069,08:00,17:00,08:00,17:00,08:00,17:00,08:00,17:00,08:00,17:00,,
경기도,신흥고,부설,경기도 동두천시 신천로 159,,,신흥고,031-865-3169,09:00,24:00,00:00,24:00,00:00,24:00,00:00,24:00,00:00,18:00,,
경기도,덕계고,부설,경기도 양주시 평화로1489번길 34,,,덕계고,031-858-9694,00:00,24:00,00:00,24:00,00:00,24:00,00:00,24:00,00:00,24:00,,
경기도,덕현고,부설,경기도 양주시 고읍북로 36,,,덕현고,031-850-2601,09:00,20:00,09:00,20:00,09:00,20:00,09:00,20:00,09:00,20:00,,
경기도,양주고,부설,경기도 양주시 삼숭로38번길 78-52,,,양주고,031-843-1202,00:00,24:00,00:00,24:00,17:00,24:00,00:00,24:00,00:00,24:00,,
경기도,양주백석고,부설,경기도 양주시 꿈나무로 205,,,양주백석고,031-826-6413,08:00,18:00,08:00,18:00,08:00,18:00,08:00,18:00,08:00,18:00,,
경기도,옥정고,부설,경기도 의정부시 옥정로7길 45,,,옥정고,031-866-8371,미개방,미개방,미개방,미개방,미개방,미개방,08:00,17:00,08:00,17:00,,
경기도,한국외식과학고,부설,경기도 양주시 남면 개나리 18길 1,,,한국외식과학고,031-863-6124,00:00,24:00,00:00,24:00,00:00,24:00,00:00,24:00,00:00,24:00,,
경기도,동두천양주교육지원청,부설,경기도 동두천시 중앙로 100-32,,,동두천양양주교육지원청,031-860-4357,00:00,24:00,00:00,24:00,00:00,24:00,00:00,24:00,00:00,24:00,,
경기도,산운유,부설,경기도 성남시 분당구 판교원로 117번길 11,,,산운초,031-8016-3003,00:00,24:00,00:00,24:00,0:00,24:00,00:00,24:00,00:00,24:00,,
경기도,성남여수유,부설,경기도 성남시 중원구 여수울로 37,,,성남여수유,031-697-0450,09:00,18:00,09:00,18:00,09:00,18:00,09:00,18:00,09:00,18:00,,
경기도,성남푸른유,부설,경기도 성남시 수정구 수정로 233,,,성남초,031-755-1129,9:00,24:00,00:00,24:00,00:00,24:00,00:00,24:00,00:00,18:00,,
경기도,검단초,부설,경기도 성남시 중원구 원터로25,,,검단초,031-753-4764,00:00,24:00,00:00,24:00,00:00,24:00,00:00,24:00,00:00,24:00,,
경기도,금빛초,부설,경기도 성남시 수정구 남문로 112,,,금빛초,031-755-0460,00:00,24:00,00:00,24:00,00:00,24:00,00:00,24:00,00:00,24:00,   ,
경기도,금상초,부설,경기도 성남시 중원구 금상로 97,,,금상초,031-733-5025,00:00,24:00,00:00,24:00,00:00,24:00,00:00,24:00,00:00,24:00,,
경기도,낙생초,부설,경기도 성남시 분당구 서판교로 74번길 11,,,낙생초,031-781-5615,00:00,24:00,00:00,24:00,00:00,24:00,00:00,24:00,00:00,24:00,,
경기도,단대초,부설,경기도 성남시 수정구 단대로 30,,,단대초 ,031-746-5474,00:00,24:00,00:00,24:00,00:00,24:00,00:00,24:00,00:00,24:00,,
경기도,당촌초,부설,경기도 성남시 분당구 분당로 196,,,당촌초,031-702-4008,00:00,24:00,00:00,24:00,00:00,24:00,00:00,24:00,00:00,24:00,,
경기도,대일초,부설(운동장),경기도 성남시 중원구 금상로58번길22,,,대일초,031-749-6776,9:00,24:00,00:00,24:00,00:00,24:00,00:00,24:00,00:00,18:00, 운동장 개방 ,
경기도,대하초,부설,경기도 성남시 시민로 14,,,대하초,031-752-9443,9:00,24:00,00:00,24:00,00:00,24:00,00:00,24:00,00:00,24:00,,
경기도,도촌초,부설,경기도 성남시 중원구 도촌남로 99,,,도촌초,031-755-0684,00:00,24:00,00:00,24:00,00:00,24:00,00:00,24:00,00:00,24:00,,
경기도,돌마초,부설,경기도 성남시 분당구 야탑로 96-7,,,돌마초,031-704-3731,미개방,미개방,09:00,24:00,00:00,24:00,00:00,24:00,00:00,09:00,,
경기도,백현초,부설,경기 성남시 분당구 백현로114번길,,,백현초,031-713-1274,13:00,24:00,00:00,24:00,00:00,24:00,00:00,24:00,00:00,24:00,,
경기도,보평초,부설,경기도 성남시 분당구 동판교로 154,,,보평초,031-697-2100,00:00,24:00,00:00,24:00,00:00,24:00,00:00,24:00,00:00,24:00,,
경기도,복정초,부설,경기도 성남시 수정구 성남대로 1480번길 25,,,복정초,031-759-5127,00:00,24:00,00:00,24:00,00:00,24:00,00:00,24:00,00:00,18:00,,
경기도,분당초,부설,경기도 성남시 분당구 중앙공원로 32번길 20,,,분당초,031-701-2398,00:00,24:00,00:00,24:00,00:00,24:00,00:00,24:00,00:00,24:00,,
경기도,불곡초,부설,경기도 성남시 무지개로 129,,,불곡초,031-716-0144,00:00,24:00,00:00,24:00,00:00,24:00,00:00,24:00,00:00,24:00,,
경기도,불정초,부설,경기도 성남시 분당구 돌마로 250,,,불정초,031-713-0454(행정실),00:00,24:00,00:00,24:00,00:00,24:00,00:00,24:00,00:00,24:00,,
경기도,산운초,부설,경기도 성남시 분당구 판교원로 117번길 11,,,산운초,031-8016-3003,00:00,24:00,00:00,24:00,00:00,24:00,00:00,24:00,00:00,24:00,,
경기도,상원초등학교,부설,경기도 성남시 중원구 은행로6,,,상원초,031-741-2198,9:00,24:00,00:00,24:00,00:00,24:00,00:00,24:00,00:00,18:00,,
경기도,상탑초,부설,경기도 성남시 분당구 판교로 647,,,상탑초,031-753-4764,00:00,24:00,00:00,24:00,00:00,08:40,08:40,24:00,00:00,24:00,,
경기도,서당초,부설,경기도 성남시 분당구 돌마로475번길 30,,,서당초,031-701-2665,00:00,24:00,00:00,24:00,00:00,24:00,00:00,24:00,00:00,24:00,,
경기도,서현초,부설,경기도 성남시 분당구 중앙공원로39번길 12,,,서현초,031-701-2170,00:00,24:00,00:00,24:00,00:00,24:00,00:00,24:00,00:00,24:00,,
경기도,성남동초,부설(운동장),경기도 성남시 중원구 자혜로32번길 10,,,성남동초,031-746-6952,00:00,24:00,00:00,24:00,00:00,24:00,00:00,24:00,00:00,24:00, 운동장 개방 ,
경기도,성남매송초,부설,성남시 분당구 탄천로 97,,,성남매송초,031-703-0773,00:00,24:00,00:00,24:00,미개방,미개방,00:00,24:00,00:00,24:00,,
경기도,성남북초,부설,수정구 희망로 534번길 3.,,,성남북초,031-746-4621,미개방,미개방,00:00,24:00,00:00,24:00,00:00,24:00,00:00,24:00,,
경기도,성남서초,부설,경기도 성남시 수정구 태평로 19,,,성남서초,031-753-5701,00:00,24:00,00:00,24:00,00:00,24:00,00:00,24:00,00:00,24:00,,
경기도,성남수정초,부설,경기도 성남시 수정구 제일로123번길9,,,성남수정초,031-757-6360,9:00,24:00,00:00,24:00,00:00,24:00,00:00,24:00,00:00,18:00,,
경기도,성남신기초,부설,경기도 성남시 분당구 황새울로 74,,,성남신기초,031-713-3693,00:00,24:00,00:00,24:00,00:00,24:00,00:00,24:00,00:00,24:00,,
경기도,성남신흥초,부설,경기도 성남시 수정구 공원로436번길 17(신흥동),,,성남신흥초,031-744-5457,00:00,24:00,00:00,24:00,00:00,24:00,00:00,24:00,00:00,24:00,,
경기도,성남양지초,부설,경기도 성남시 수정구 논골로 36번길 33,,,성남양지초,031-733-1423,9:00,24:00,00:00,24:00,00:00,24:00,00:00,24:00,00:00,18:00,,
경기도,성남여수초,부설,경기도 성남시 중원구 여수울로 37,,,성남여수초,031-757-6907,9:00,24:00,00:00,24:00,00:00,24:00,00:00,24:00,00:00,18:00,,
경기도,성남장안초,부설,경기도 성남시 분당구 장안로 51번길 10,,,성남장안초,031-701-7075,00:00,24:00,00:00,24:00,00:00,24:00,00:00,24:00,00:00,24:00,,
경기도,성남제일초,부설,성남시 중원구 광명로184번길23,,,성남제일초,031-746-6712,00:00,24:00,00:00,24:00,00:00,24:00,00:00,24:00,00:00,24:00,,
경기도,성남중앙초,부설,경기도 성남시 원터로94번길 7,,,성남중앙초,031-754-4413,00:00,24:00,00:00,24:00,00:00,24:00,00:00,24:00,00:00,24:00,,
경기도,성남초,부설,경기도 성남시 수정구 수정로 233,,,성남초,031-755-1129,9:00,24:00,00:00,24:00,00:00,24:00,00:00,24:00,00:00,18:00,,
경기도,성수초,부설,경기도 성남시 수정구 모란로11,,,성수초,031-752-9602,미개방,미개방,미개방,미개방,미개방,미개방,6:00,19:00,6:00,19:00,,
경기도,수내초,부설,경기도 성남시 분당구 백현로243번길 12,,,수내초,031-711-2153,00:00,24:00,00:00,24:00,00:00,24:00,00:00,24:00,00:00,24:00,,
경기도,수진초,부설,경기도 성남시 수정구 탄리로 95번길 16,,,수진초,031-753-0320,09:00,24:00,00:00,24:00,00:00,24:00,00:00,24:00,00:00,18:00,,
경기도,신백현초,부설,경기도 성남시 분당구 판고역로 14번길 42,,,신백현초,031-8017-2073,09:00,17:00,09:00,17:00,09:00,17:00,09:00,17:00,09:00,17:00,,
경기도,안말초,부설,경기도 성남시 양현로 104,,,안말초,031-704-6161,00:00,24:00,00:00,24:00,00:00,24:00,00:00,24:00,00:00,24:00,,
경기도,야탑초,부설,경기도 성남시 분당구 양현로 400,,,야탑초,031-704-8193,00:00,24:00,00:00,24:00,00:00,24:00,00:00,24:00,00:00,24:00,,
경기도,양영초,부설,경기도 성남시 분당구 불정로406번길 17,,,양영초,031-707-0124,00:00,24:00,00:00,24:00,00:00,24:00,00:00,24:00,00:00,24:00,,
경기도,오리초,부설,경기도 성남시 분당구 미금로 121,,,오리초,031-714-0672,7:00,19:00,7:00,19:00,7:00,19:00,7:00,19:00,7:00,19:00,,
경기도,운중초,부설,성남시 분당구 운중로 45번길 8,,,운중초,031-781-5481~3,8:00,18:00,8:00,18:00,8:00,18:00,8:00,18:00,8:00,18:00,,
경기도,위례고운초,부설,경기도 성남시 수정구 위례순환로 155,,,위례고운초,031-751-9343,00:00,24:00,00:00,24:00,미개방,미개방,00:00,24:00,00:00,24:00,,
경기도,위례중앙초,부설,경기도 성남시 수정구 위례순환로71,,,위례중앙초,031-759-9060,00:00,24:00,00:00,24:00,00:00,24:00,00:00,24:00,00:00,24:00,,
경기도,위례푸른초,부설,경기도 성남시 수정구 위례순환로205,,,위례푸른초,031-757-6519,00:00,24:00,00:00,24:00,00:00,24:00,00:00,24:00,00:00,24:00,,
경기도,위례한빛초,부설,경기도 성남시 수정구 위례동로 55,,,위례한빛초,031-75-9671,00:00,24:00,00:00,24:00,00:00,24:00,00:00,24:00,00:00,24:00,,
경기도,이매초,부설,경기도 성남지 분당구 양현로 146,,,이매초,031-704-4088,00:00,24:00,00:00,24:00,00:00,24:00,00:00,24:00,00:00,24:00,,
경기도,중부초,부설,경기도 성남시 중원구 자혜로 55,,,중부초,031-730-7109,9:00,24:00,00:00,24:00,00:00,24:00,00:00,24:00,00:00,24:00,,
경기도,중원초,부설,경기도 성남시 중원구 사기막골로 31번길 46,,,중원초,031-734-1270,00:00,24:00,00:00,24:00,00:00,24:00,00:00,24:00,00:00,24:00,,
경기도,중탑초,부설,성남시 분당구 벌말로 68,,,중탑초,031-705-5854,0:00,24:00,00:00,24:00,00:00,24:00,00:00,24:00,00:00,24:00,,
경기도,청솔초,부설,경기도 성남시 분당구 금곡로 243,,,청솔초,031-713-0744,6:00,18:00,6:00,18:00,6:00,18:00,미개방,미개방,6:00,18:00,,
경기도,탄천초,부설,경기도 성남시 분당구 내정로 20,,,탄천초,031-714-0763,00:00,24:00,00:00,24:00,00:00,24:00,00:00,24:00,00:00,24:00,,
경기도,판교초,부설,경기도 성남시 분당구 판교원로231,,,판교초,031-8017-0430,00:00,24:00,00:00,24:00,00:00,24:00,00:00,24:00,00:00,24:00,,
경기도,하원초,부설,경기도 성남시 중원구 광명로 396,,,하원초,031-731-6073,미개방,미개방,미개방,미개방,09:00,24:00,00:00,24:00,00:00,18:00,,
경기도,하탑초,부설,경기도 성남시 분당구 양현로 262,,,하탑초,070-7605-1569,0:00,24:00,00:00,24:00,00:00,24:00,00:00,24:00,00:00,24:00,,
경기도,한솔초,부설,경기도 성남시 분당구 돌마로 303,,,한솔초,031-713-0364,00:00,24:00,00:00,24:00,00:00,24:00,00:00,24:00,00:00,24:00,,
경기도,희망대초,부설,경기도 성남시 수정구 공원로370번길29,,,희망대초,031-732-4114,09:00,24:00,00:00,24:00,00:00,24:00,00:00,24:00,00:00,18:00,,
경기도,구미중,부설,경기도 성남시 분당구 구미로 173번길 29,,,구미중,031-726-2855,00:00,24:00,00:00,24:00,00:00,24:00,00:00,24:00,00:00,24:00,,
경기도,금광중,부설,경기 성남시 중원구 황송로 25,,,금광중,031-735-7922,00:00,24:00,00:00,24:00,00:00,24:00,00:00,24:00,00:00,24:00,,
경기도,내정중,부설,경기도 성남시 분당구 백현로 197,,,내정중,031-711-2025,07:00,19:00,미개방,미개방,미개방,미개방,07:00,19:00,07:00,19:00,,
경기도,늘푸른중,부설,경기도 서남시 분당구 정자일로 77,,,늘푸른중,031-716-7591,00:00,24:00,00:00,24:00,00:00,24:00,00:00,24:00,00:00,24:00,,
경기도,대원중,부설,경기도 성남시 금광로 35,,,대원중,031-743-9491,00:00,24:00,00:00,24:00,00:00,24:00,00:00,24:00,00:00,24:00,,
경기도,도촌중,부설,경기도 성남시 도촌북로 50,,,도촌중,031-755-2705,00:00,24:00,00:00,24:00,00:00,24:00,00:00,24:00,00:00,24:00,,
경기도,매송중,부설,경기도 성남시 분당구 탄천로 49,,,매송중,031-706-0124,00:00,24:00,00:00,24:00,00:00,24:00,00:00,24:00,00:00,24:00,,
경기도,백현중,부설,경기도 성남시 분당구 황새울로 124,,,백현중,031-714-1987,00:00,24:00,00:00,24:00,00:00,24:00,00:00,24:00,00:00,24:00,,
경기도,보평중,부설,경기도 성남시 분당구 동판교로 131,,,보평중,031-779-2205,00:00,24:00,00:00,24:00,00:00,24:00,00:00,24:00,00:00,24:00,,
경기도,분당중,부설,경기도 성남시 분당구 황새울로 4,,,분당중,031-728-7400,00:00,24:00,00:00,24:00,00:00,24:00,00:00,24:00,00:00,24:00,,
경기도,불곡중,부설,경기도 성남시 분당구 금곡로 139,,,불곡중,031-785-3105,08:50,21:00,미개방,미개방,미개방,미개방,08:50,21:00,08:50,21:00,,
경기도,삼평중,부설,성남시 분당구 대왕판교로 644번길 77,,,삼평중학교,031-8016-1011,00:00,24:00,00:00,24:00,00:00,24:00,00:00,24:00,00:00,24:00,,
경기도,서현중,부설,경기도 성남시 분당구 중앙공원로 54-1,,,서현중,031-701-4504,00:00,24:00,00:00,24:00,00:00,24:00,00:00,24:00,00:00,24:00,,
경기도,성남동중,부설,경기도 성남시 중원구 광명로361번길 23,,,성남동중,031-747-5541,00:00,24:00,00:00,24:00,00:00,24:00,00:00,24:00,00:00,24:00,,
경기도,성남문원중,부설,경기도 성남시 수정구 논골로79,,,성남문원중,031-747-3869,00:00,24:00,00:00,24:00,00:00,24:00,00:00,24:00,00:00,24:00,   ,
경기도,성남서중,부설,경기도 성남시 수정구 희망로 496,,,성남서중,"031-739-6215,739-6295",00:00,24:00,00:00,24:00,00:00,24:00,00:00,24:00,00:00,24:00,,
경기도,성남여중,부설,경기도 성남시 수정구 공원로 446,,,성남여중,031-734-1194,9:00,24:00,0:00,24:00,00:00,24:00,00:00,24:00,00:00,18:00, 운동장 ,
경기도,수진중,부설,경기도 성남시 수정구 모란로55,,,수진중,031-697-4110,00:00,24:00,00:00,24:00,00:00,24:00,00:00,24:00,00:00,24:00,,
경기도,야탑중,부설,경기도 성남시 분당구 양현로 442,,,야탑중,031-709-9011,00:00,24:00,00:00,24:00,00:00,24:00,00:00,24:00,00:00,24:00,,
경기도,운중중,부설,경기도 성남시 분당구 운중로96,,,운중중,031-8016-6003,00:00,24:00,00:00,24:00,00:00,24:00,00:00,24:00,00:00,24:00,,
경기도,위례중앙중,부설,경기도 성남시 수정구 위례순환로91,,,위례중앙중,031-759-8683,미개방,미개방,16:40,24:00,미개방,미개방,16:40,24:00,00:00,24:00,,
경기도,은행중,부설,경기도 성남시 중원구 순환로379번길 20,,,은행중,031-739-3805,미개방,미개방,미개방,미개방,08:40,18:30,08:40,18:30,08:40,18:30,,
경기도,이매중,부설,경기도 성남시 분당구 양현로 194,,,이매중,031-776-1000,07:30,24:00,00:00,24:00,00:00,24:00,00:00,24:00,00:00,24:00,,
경기도,정자중,부설,경기도 성남시 분당구 황새울로 60,,,정자중,031-784-6712,00:00,24:00,00:00,24:00,00:00,24:00,00:00,24:00,00:00,24:00,,
경기도,창성중,부설(운동장),경기도 성남시 수정구 수정로 386,,,창성중,031-742-5181,9:00,24:00,00:00,24:00,00:00,24:00,00:00,24:00,00:00,18:00,,
경기도,판교중,부설,경기도 성남시 분당구 판교원로 193,,,판교중,031-8017-5005,00:00,24:00,00:00,24:00,00:00,24:00,00:00,24:00,00:00,24:00,,
경기도,하탑중,부설,경기도성남시 분당구 벌말로11,,,하탑중,031-706-2074,00:00,24:00,00:00,24:00,00:00,24:00,00:00,24:00,00:00,24:00,   ,
경기도,성일중,부설,경기도 성남시 중원구 시민로77번길 10,,,성일고,031-750-1809,6:00,22:00,6:00,22:00,6:00,22:00,6:00,22:00,6:00,22:00,,
경기도,이우중,부설,성남시 분당구 동막로 157-1,,,이우중고,031-710-6906,00:00,24:00,00:00,24:00,00:00,24:00,00:00,24:00,00:00,24:00,,
경기도,늘푸른고,부설,경기도 성남시 분당구 성남대로 407번길 26(정자동),,,늘푸른고,031-726-4041,00:00,24:00,00:00,24:00,미개방,미개방,08:50,24:00,미개방,미개방,,
경기도,돌마고,부설,경기도 성남시 분당구 이매로 105,,,돌마고,031-780-7500,00:00,24:00,00:00,24:00,00:00,24:00,00:00,24:00,00:00,24:00,,
경기도,보평고,부설,경기도 성남시 분당구 동판교로 124,,,보평고,031-8017-0466,7:00,18:00,7:00,18:00,7:00,18:00,7:00,18:00,7:00,18:00,,
경기도,복정고,부설,경기도 성남시 수정구 복정안골로35,,,복정고,031-720-1707(1782 숙직실),00:00,24:00,00:00,24:00,00:00,24:00,00:00,24:00,00:00,24:00,,
경기도,분당고,부설,경기도 성남시 분당구 내정로165번길31,,,분당고,031-710-7715,00:00,24:00,00:00,24:00,00:00,24:00,00:00,24:00,00:00,24:00,,
경기도,분당중앙고,부설,경기도 성남시 분당구 불정로174,,,분당중앙고,031-713-7116,09:00,21:00,09:00,21:00,미개방,미개방,09:00,21:00,미개방,미개방,,
경기도,불곡고,부설,경기도 성남시 분당구 금곡로 149,,,불곡고,031-710-2821,미개방,미개방,09:00,24:00,미개방,미개방,09:00,24:00,00:00,24:00,,
경기도,서현고,부설,경기도 분당구 분당로 87,,,서현고,031-702-8485,09:00,22:00,09:00,22:00,09:00,22:00,09:00,22:00,09:00,22:00,,
경기도,성남고,부설,경기도 성남시 중원구 시민로61,,,성남고,031-729-0313,9:00,19:00,9:00,19:00,9:00,19:00,9:00,19:00,9:00,19:00,,
경기도,성남외고,부설,경기도 성남시 분당구 대왕판교로385번길 28,,,성남외고,031-789-2300,00:00,24:00,00:00,24:00,00:00,24:00,00:00,24:00,00:00,12:00,,
경기도,성남테크노과학고,부설,성남시 중원구 둔촌대로 258번길 7,,,성남테크노과학고,031-753-0254,00:00,24:00,00:00,24:00,00:00,24:00,00:00,24:00,00:00,24:00,,
경기도,성남혜은학교,부설,경기도 성남시 수정구 희망로 518번길 8,,,성남혜은학교,070-7166-5109,미개방,미개방,08:00,19:00,미개방,미개방,08:00,19:00,08:00,19:00,,
경기도,양영디지털고,부설,경기도 성남시 분당구 불정로 386번길 35,,,양영디지털고,031-778-2400,00:00,24:00,00:00,24:00,00:00,24:00,00:00,24:00,00:00,24:00,,
경기도,운중고,부설,경기도 성남시 분당구 운중로95,,,두잉C&S,070-7016-0948,00:00,24:00,00:00,24:00,00:00,24:00,00:00,24:00,00:00,24:00,,
경기도,위례한빛고,부설,경기도 성남시 수정구 위례동로 86,,,위례한빛고,031-8038-1906,00:00,24:00,00:00,24:00,00:00,24:00,00:00,24:00,00:00,24:00,,
경기도,이매고,부설,경기도 성남시 분당구 탄천로 1,,,이매고,031-704-4042,00:00,24:00,00:00,24:00,00:00,24:00,00:00,24:00,00:00,24:00,,
경기도,판교고,부설,경기도 성남시 분당구 동판교로 257,,,판교고,031-8017-1961,00:00,24:00,00:00,24:00,00:00,24:00,00:00,24:00,00:00,24:00,,
경기도,한솔고,부설,경기도 성남시 분당구 내정로 70,,,한솔고,031-714-4381,00:00,24:00,00:00,24:00,00:00,24:00,00:00,24:00,00:00,24:00,,
경기도,계원예고,부설,경기도 성남시 분당구 불정로 100(정자동),,,계원예고,031-710-8507,00:00,24:00,00:00,24:00,00:00,24:00,00:00,24:00,00:00,24:00,,
경기도,분당대진고,부설,경기도 성남시 분당구 분당로,,,분당대진고,031-706-8574,6:00,22:00,06:00,22:00,06:00,22:00,06:00,22:00,06:00,22:00,,
경기도,분당영덕여고,부설,경기도 성남시 분당구 판교로 592번길 13,,,분당영덕여고,031-724-6000,9:00,17:00,9:00,17:00,9:00,17:00,9:00,17:00,9:00,17:00,,
경기도,성일고,부설,경기도 성남시 중원구 시민로77번길 10,,,성일고,031-750-1809,6:00,22:00,6:00,22:00,6:00,22:00,6:00,22:00,6:00,22:00,,
경기도,성일정보고,부설,경기도 성남시 중원구 시민로77번길 10,,,성일고,031-750-1809,6:00,22:00,6:00,22:00,6:00,22:00,6:00,22:00,6:00,22:00,,
경기도,야탑고,부설,경기도 성남시 분당구 판교로738,,,야탑고,031-697-0110,00:00,24:00,00:00,24:00,00:00,24:00,00:00,24:00,00:00,24:00,,
경기도,이우고,부설,성남시 분당구 동막로 157-1,,,이우중고,031-710-6906,00:00,24:00,00:00,24:00,00:00,24:00,00:00,24:00,00:00,24:00,,
경기도,태원고,부설,경기도 성남시 분당구 성남대로 822,,,태원고,031-704-6601,00:00,24:00,00:00,24:00,00:00,24:00,00:00,24:00,00:00,24:00,,
경기도,효성고,부설,경기도 성남시 수정구 심곡로 16,,,효성고,031-723-6240,09:00,24:00,00:00,24:00,00:00,24:00,00:00,24:00,00:00,17:00,,
경기도,성남혜은학교,부설,경기도 성남시 수정구 희망로 518번길 8,,,성남혜은학교,070-7166-5109,미개방,미개방,08:00,19:00,미개방,미개방,08:00,19:00,08:00,19:00,,
경기도,계원예술학교,부설,경기도 성남시 분당구 불정로 100(정자동),,,계원예고,031-710-8507,00:00,24:00,00:00,24:00,00:00,24:00,00:00,24:00,00:00,24:00,,
경기도,성남교육지원청,부설,경기도 성남시 분당구 서현동 279,,,성남교육지원청,031-780-2600,00:00,24:00,00:00,24:00,00:00,24:00,00:00,24:00,00:00,24:00,,
경기도,경일초,부설,경기도 안산시 상록구 성포로 47(성포동),,,경일초,031-487-4333,8:00,18:00,8:00,18:00,미개방,미개방,8:00,18:00,미개방,미개방,,
경기도,고잔초,부설,경기도 안산시 단원구 적금로182,,,고잔초,031-487-4350,0:00,24:00,0:00,24:00,0:00,24:00,0:00,24:00,0:00,24:00, ,
경기도,관산초,부설,경기도 안산시 단원구 원선1로 68,,,관산초,031-487-4020,미개방,미개방,0:00,24:00,미개방,미개방,0:00,24:00,0:00,24:00,,
경기도,능길초,부설,안산시단원구 신길중앙로3길8,,,능길초,031-493-8092,미개방,미개방,8:40,18:00,미개방,미개방,8:40,18:00,8:40,18:00,,
경기도,대동초,노상,경기도 안산시 단원구 솔따배기길 134-9,,,대동초,032-886-9485(주무관 강진규),09:00,18:00,09:00,18:00,09:00,18:00,09:00,18:00,09:00,18:00, ,
경기도,대부초,부설,안산시 단원구 대부중앙로 56,,,대부초,070-4334-0877,0:00,24:00,미개방,미개방,미개방,미개방,00;00,24:00,0:00,24:00,,
경기도,덕성초,부설,경기도 안산시 단원구 예술대학로119,,,덕성초,031-487-6102,미개방,미개방,0:00,24:00,0:00,24:00,0:00,24:00,0:00,24:00,,
경기도,반월초,부설,경기도 안산시 상록구 건건로 39,,,반월초,031-487-2336,0:00,24:00,0:00,24:00,0:00,24:00,0:00,24:00,0:00,24:00, ,
경기도,석호초,부설,안산시 상록구 석호로113,,,석호초,031-487-5483,0:00,24:00,0:00,24:00,0:00,24:00,0:00,24:00,0:00,24:00, ,
경기도,송호초,부설,경기도 안산시 단원구 한양대학로 183,,,송호초,031-487-8438,0:00,24:00,0:00,24:00,0:00,24:00,0:00,24:00,0:00,24:00,급식실 현대화 사업 공사로 인하여 주차 공간 협소,
경기도,슬기초,부설,경기 안산 단원 안산천남로 53,,,슬기초,070-8677-8907,7:00,20:00,7:00,20:00,7:00,20:00,7:00,20:00,7:00,20:00, ,
경기도,시곡초,부설,경기도 안산시 상록구 감골1로 46,,,시곡초,031-487-6351,미개방,미개방,9:00,24:00,미개방,미개방,9:00,24:00,0:00,24:00,,
경기도,시랑초,부설,경기도 안산시 상록구 충장로 670,,,시랑초,031-439-2459,미개방,미개방,미개방,미개방,미개방,미개방,8:30,16:30,8:30,16:30,,
경기도,신길초,부설,경기도 안산시 단원구 새뿔길 100,,,신길초,070-7123-3725,8:00,18:00,8:00,18:00,8:00,18:00,8:00,18:00,8:00,18:00,,
경기도,안산서초,부설,경기도 안산시 단원구 원선로 67,,,안산서초,031-487-4548,0:00,24:00,0:00,24:00,0:00,24:00,0:00,24:00,0:00,24:00, ,
경기도,안산양지초,부설,경기도 안산시 단원구 안산천남로 129,,,안산양지초,031-414-8475,미개방,미개방,미개방,미개방,8:30,24:00,8:30,24:00,8:30,24:00,,
경기도,안산진흥초,부설,경기도 안산시 단원구 화정천동로 80,,,안산진흥초,070-5075-5999,미개방,미개방,8:00,17:00,8:00,17:00,8:00,17:00,8:00,17:00, ,
경기도,안산창촌초,부설,경기도 안산시 상록구 건건5길 7,,,당직실,031-438-7293,0:00,24:00,0:00,24:00,0:00,24:00,0:00,24:00,0:00,24:00, ,
경기도,안산청석초,부설,경기도 안산시 상록구 해양1로 48,,,안산청석초,031-415-3262,0:00,24:00,미개방,미개방,미개방,미개방,0:00,24:00,0:00,24:00,,
경기도,안산호원초,노상,안산시 단원구 초지1로 100,,,안산호원초등학교,070-4099-0879,8:40,16:40,미개방,미개방,미개방,미개방,미개방,미개방,8:40,16:40, ,
경기도,원일초,부설,경기도 안산시 원선로 113,,,원일초,031-487-3034,0:00,24:00,0:00,24:00,0:00,24:00,0:00,24:00,0:00,24:00, ,
경기도,이호초,노상,경기도 안산시 상록구 고목로3길 44,,,안산시청,031-411-0113,미개방,미개방,8:30,24:00,0:00,24:00,0:00,24:00,미개방,미개방,안산시청 등록 차량만 주차가능,
경기도,정재초,부설,경기도 안산시 상록구 정재초교길 11,,,정재초,031-487-4152,미개방,미개방,8:30,24:00,0:00,24:00,0:00,24:00,미개방,미개방,,
경기도,초지초,부설,경기도 안산시 단원구 초지로 153,,,초지초,031-482-3817,8:00,18:00,8:00,18:00,8:00,18:00,8:00,18:00,8:00,18:00, ,
경기도,호동초,부설,경기도 안산시 상록구 성호로 70,,,호동초,031-487-4462,0:00,24:00,0:00,24:00,0:00,24:00,0:00,24:00,0:00,24:00, ,
경기도,경수중,부설,경기도 안산시 상록구 삼일로 678,,,경수중,031-412-4109,0:00,24:00,0:00,24:00,0:00,24:00,0:00,24:00,0:00,24:00, ,
경기도,관산중,부설,안산시 단원구 삼일로 184,,,안산시청,031-487-8104,0:00,24:00,0:00,24:00,0:00,24:00,0:00,24:00,0:00,24:00, ,
경기도,광덕중,부설,안산시 상록구 광덕산3로 15,,,광덕중,070-7114-1443,0:00,24:00,0:00,24:00,0:00,24:00,0:00,24:00,0:00,24:00, ,
경기도,단원중,부설,경기도 안산시 단원구 단원로 27,,,단원중,031-475-1381,미개방,미개방,6:00,18:30,미개방,미개방,6:00,18:30,6:00,18:30, ,
경기도,상록중,부설,안산시 상록구 각골로4길 29,,,상록중,031-487-7622,0:00,24:00,0:00,24:00,0:00,24:00,0:00,24:00,0:00,24:00, ,
경기도,석수중,부설,경기도 안산시 단원구 선부로 133,,,석수중,070-4322-0994,미개방,미개방,8:50,20:00,7:00,20:00,미개방,미개방,8:50,20:00,,
경기도,석호중,부설,경기도안산시석호공원로4길8(사동),,,BTL,031-409-7293,8:00,24:00,0:00,24:00,0:00,24:00,0:00,24:00,0:00,19:00, ,
경기도,선부중,부설,경기도 안산시 단원구 달미로 95,,,안산시청(교통과),031-487-7613,0:00,24:00,0:00,24:00,0:00,24:00,0:00,24:00,0:00,24:00,안산시청 등록 차량만 주차가능,
경기도,성안중,부설,경기도 안산시 상록구 석호로 81,,,성안중,070-7126-7612,8:00,18:00,8:00,18:00,8:00,18:00,8:00,18:00,8:00,18:00, ,
경기도,성포중,부설,경기도 안산시 상록구 월피로 73,,,성포중,070-7114-3000,미개방,미개방,8:40,18:00,미개방,미개방,8:40,18:00,8:40,18:00,,
경기도,시곡중,부설,경기도 안산시 상록구 감골로123,,,시곡중,031-363-8100(시설당직원),8:00,20:00,8:00,20:00,8:00,20:00,8:00,20:00,8:00,20:00,,
경기도,신길중,부설,경기도 안산시 단원구 신길로 81,,,신길중,031-364-0248,0:00,24:00,0:00,24:00,0:00,24:00,0:00,24:00,0:00,24:00, ,
경기도,안산부곡중,부설,경기도 안산시 상록구 부곡로 15,,,안산시청,031-487-2235,0:00,24:00,0:00,24:00,0:00,24:00,0:00,24:00,0:00,24:00, ,
경기도,안산성호중,부설,경기도안산시상록구구룡서길 21-11,,,안산성호중학교,031-408-2907,13:00,18:00,9:00,18:00,9:00,18:00,9:00,18:00,9:00,18:00, ,
경기도,안산해양중,부설,경기도 안산시 상록구 해양로 11,,,안산해양중학교,031-362-1300,0:00,24:00,미개방,미개방,미개방,미개방,0:00,24:00,0:00,24:00,,
경기도,양지중,부설,안산시 단원구 안산천남로 119,,,양지중,031-489-9708,7:00,19:00,7:00,19:00,미개방,미개방,7:00,19:00,7:00,19:00,,
경기도,와동중,부설,안산시 단원구 사세충열로 54,,,와동중,031-485-7617,0:00,24:00,0:00,24:00,0:00,24:00,0:00,24:00,0:00,24:00, ,
경기도,원곡중,부설,경기도 안산시 단원구 원선로 81,,,원곡중,031-599-9612,0:00,24:00,0:00,24:00,0:00,24:00,0:00,24:00,0:00,24:00, ,
경기도,이호중,부설,경기도 안산시 상록구 충장로 50,,,이호중,031-363-6608(당직실),미개방,미개방,0:00,24:00,0:00,24:00,0:00,24:00,미개방,미개방,,
경기도,중앙중,부설,경기도 안산시 안산천서로65,,,중앙중,070-4355-1777,0:00,24:00,0:00,24:00,0:00,24:00,0:00,24:00,0:00,24:00, ,
경기도,경기모바일과학고,부설,경기도 안산시 상록구 남산평길35,,,경기모바일고학고,031-400-6700,0:00,24:00,0:00,24:00,0:00,24:00,0:00,24:00,0:00,24:00, ,
경기도,대부고,부설,경기도 안산시 단원구 대부중앙로 3,,,대부고,032-886-4277,9:00,14:00,미개방,미개방,미개방,미개방,9:00,17:00,9:00,17:00,,
경기도,부곡고,부설,경기도 안산시 상록구 시낭로 78,,,부곡고,031-363-0254,0:00,24:00,0:00,24:00,미개방,미개방,0:00,24:00,0:00,24:00,,
경기도,성안고,부설,경기도 안산시 상록구 용신로170,,,성안고,031-363-0600,0:00,24:00,0:00,24:00,0:00,24:00,0:00,24:00,0:00,24:00, ,
경기도,성포고,부설,경기도 안산시 상록구 충장로 538,,,성포고,031-599-9283,0:00,24:00,0:00,24:00,0:00,24:00,0:00,24:00,0:00,24:00, ,
경기도,신길고,부설,경기도 안산시 단원구 신길로 45,,,신길고,031-599-9896,6:00,22:00,6:00,22:00,6:00,22:00,6:00,22:00,6:00,22:00, ,
경기도,양지고,부설,경기도 안산시 단원구 화정천동로 50,,,양지고,070-4945-9615,9:00,17:00,9:00,17:00,9:00,17:00,9:00,17:00,미개방,미개방,,
경기도,원곡고등학교,부설,경기도 안산시 단원구 화랑로 15,,,원곡고,031-8085-0009,0:00,24:00,0:00,24:00,0:00,24:00,0:00,24:00,0:00,24:00,외벽공사진행중으로 본관뒷편 출입통제,
경기도,초지고,부설,안산시 단원구 광덕1로 13,,,초지고,031-412-8492,미개방,미개방,9:00,19:00,미개방,미개방,9:00,19:00,9:00,19:00,,
경기도,안산고,노상,안산시상록구 청룡4길 8,,,안산고,031-482-6575,0:00,24:00,0:00,24:00,0:00,24:00,0:00,24:00,0:00,24:00, ,
경기도,안산공고,부설,안산시상록구안산공고로51,,,안산공고,031-486-4295,9:00,17:00,9:00,17:00,9:00,17:00,9:00,17:00,9:00,17:00,야간주차 불가,
경기도,안산동산고,부설,경기도 안산시 상록구 충장로 56,,,안산동산고,031-418-7783,0:00,24:00,0:00,24:00,0:00,24:00,0:00,24:00,0:00,24:00, ,
경기도,한국디지털미디어고,부설,경기도 안산시 단원구 사세충열로 94 와동,,,한국디지털미디어고,031-363-7888,8:00,20:00,8:00,20:00,8:00,20:00,8:00,20:00,8:00,20:00, ,
경기도,개산초,부설,경기도 안성시 금광면 외개산길 42,,,개산초 ,031-676-3880,00:00,24:00,00:00,24:00,00:00,24:00,00:00,24:00,00:00,24:00,,
경기도,개정초,부설,경기도 안성시 미양면 미양로 72,,,개정초,031-672-8987,00:00,24:00,00:00,24:00,00:00,24:00,00:00,24:00,00:00,24:00,,
경기도,고삼초,부설,"경기도 안성시 고삼면 
고삼호수로 37",,,고삼초,031-672-7081,00:00,24:00,00:00,24:00,미개방,미개방,08:00,24:00,00:00,24:00,,
경기도,공도초,부설,경기도안성시공도1로9,,,공도초,031-651-2004,미개방,미개방,08:00,20:00,08:00,20:00,08:00,20:00,08;00,20:00,,
경기도,금광초,부설,경기도 안성시 금광면 금광초교길 54,,,금광초,031-672-4173,00:00,24:00,00:00,24:00,17:00,24:00,00:00,24:00,00:00,24:00,,
경기도,금광초 조령분교,부설,경기도 안성시 금광면 사흥리 사흥길 59,,,금광초,031-672-4173,00:00,24:00,00:00,24:00,17:00,24:00,00:00,24:00,00:00,24:00,,
경기도,광선초,부설,경기도 안성시 죽산면 개좌길 16,,,광선초,031-672-6082,00:00,24:00,00:00,24:00,17:00,24:00,00:00,24:00,00:00,24:00,,
경기도,내혜홀초,부설,경기도 안성시 내혜홀3길 29,,,내혜홀초,031-671-1084,00:00,24:00,00:00,07:00,07:00,24:00,00:00,24:00,00:00,24:00,,
경기도,대덕초,노외,경기도 안성시 모산로 100 안성대덕교직원사택 주차장,,,대덕초,031-676-0630,00:00,24:00,00:00,24:00,00:00,24:00,00:00,24:00,00:00,12:00,,
경기도,동신초,부설,경기도 안성시 보개면 사갑뜰길6,,,동신초,031-671-3995,미개방,미개방,00:00,24:00,미개방,미개방,00:00,24:00,00:00,24:00,,
경기도,마전초,부설,경기도 안성시 삼죽면 서동대로 5915,,,마전초,031-672-4087,00:00,24:00,00:00,24:00,00:00,24:00,00:00,24:00,00:00,24:00,,
경기도,만정초,부설,경기도 안성시 공도읍 송원길 12,,,만정초,031-692-5614,06:00,18:00,06:00,18:00,06:00,18:00,06:00,18:00,06:00,18:00,,
경기도,명덕초,부설,경기도 안성시 미륵로 16,,,명덕초,031-676-9825,00:00,08:40,08:40,24:00,00:00,08:40,08:40,24:00,00:00,24:00,,
경기도,미곡초,부설,경기도안성시 양성면 안성맞춤대로 2304-9,,,미곡초,031-672-6544,00:00,24:00,00:00,24:00,00:00,24:00,00:00,24:00,00:00,24:00,,
경기도,미양초,부설,경기도 안성시 미양면 양지길 40,,,미양초,031-673-1997,00:00,24:00,00:00,24:00,00:00,24:00,00:00,24:00,00:00,24:00,,
경기도,문기초,부설,경기도 안성시 공도읍 서동대로 4424,,,문기초,031-618-0559,00:00,24:00,00:00,24:00,00:00,24:00,00:00,24:00,00:00,24:00,,
경기도,방초초,부설,경기도 안성시 일죽면 사실로 86,,,방초초,031-674-5048,00:00,24:00,00:00,24:00,00:00,24:00,00:00,24:00,00:00,24:00,,
경기도,보개초,부설,경기도 안성시 보개면 복평길 18,,,보개초,031-675-3470,00:00,24:00,00:00,24:00,17:00,24:00,00:00,24:00,00:00,24:00,,
경기도,보개초가율분교,부설,경기도 안성시 보개면 이전리 347,,,가율분교,031-675-3470,00:00,24:00,00:00,24:00,17:00,24:00,00:00,24:00,00:00,24:00,,
경기도,보체초,부설,경기도 안성시 미양면 보체길 47,,,보체초 ,031-677-8082,00:00,24:00,00:00,24:00,00:00,24:00,00:00,24:00,00:00,24:00,,
경기도,비룡초,부설,경기도 안성시 비룡로 78,,,비룡초,031-676-0282,00:00,24:00,00:00,24:00,00:00,24:00,00:00,24:00,00:00,24:00,,
경기도,산평초,부설,경기도 안성시 서운면 서운로 58,,,산평초,031-673-9086,06:00,19:00,미개방,미개방,미개방,미개방,06:00,19:00,06:00,19:00,,
경기도,삼죽초,부설,경기도 안성시 삼죽면 삼죽초교길 20,,,삼죽초,031-672-6060,미개방,미개방,미개방,미개방,06:00,21:30,06:00,21:30,06:00,21:30,,
경기도,서삼초,부설,경기도 안성시 보개면 보개원삼로 1001,,,서삼초,031-673-4427,00:00,24:00,00:00,24:00,00:00,24:00,00:00,24:00,00:00,24:00,,
경기도,안성초,부설,경기 안성시 혜산로 13,,,안성초,031-674-5803,00:00,24:00,00:00,24:00,00:00,24:00,00:00,24:00,00:00,24:00,,
경기도,어울초,부설,경기도 안성시 대덕면 신령로 58-33,,,어울초,031-677-9341,00:00,24:00,00:00,24:00,17:00,24:00,00:00,24:00,00:00,24:00,,
경기도,일죽초,부설,경기도 안성시 일죽면 주래본죽로 72,,,일죽초,031-673-6915,00:00,24:00,00:00,24:00,00:00,24:00,00:00,24:00,00:00,24:00,,
경기도,용머리초,부설,경기도 안성시 공도읍 기업단지로 57,,,용머리초등학교,031-658-0730,00:00,24:00,00:00,24:00,00:00,24:00,00:00,24:00,00:00,24:00,,
경기도,원곡초,노외,경기도 안성시 원곡면 가천중앙1길 51-17,,,원곡초,031-653-6443,00:00,24:00,00:00,24:00,00:00,24:00,00:00,24:00,00:00,24:00,,
경기도,죽산초,부설,경기도 안성시 죽산면 죽산초교길 43,,,죽산초,031-675-1127,00:00,24:00,00:00,24:00,00:00,24:00,00:00,24:00,00:00,24:00,,
경기도,죽화초,노외,경기도 안성시 일죽면 죽화로 297,,,죽화초,031-673-1941,00:00,24:00,00:00,24:00,00:00,24:00,00:00,24:00,00:00,24:00,,
경기도,현매초,부설,경기도 안성시 서운면 매향길 61,,,현매초,031-673-2386,00:00,24:00,00:00,24:00,00:00,24:00,00:00,24:00,00:00,24:00,,
경기도,공도중,부설,경기도 안성시 공도읍 공도로115-12,,,공도중,031-651-7270,00:00,24:00,00:00,24:00,00:00,24:00,00:00,24:00,00:00,24:00,,
경기도,만정중,부설,경기도 안성시 공도읍 송원길 21-6,,,만정중,031-678-9700,00:00,24:00,00:00,24:00,00:00,24:00,00:00,24:00,00:00,24:00,,
경기도,명륜여중,부설,경기도 안성시 장기로 103번길 22,,,명륜여중,031-675-3538,00:00,24:00,00:00,24:00,00:00,24:00,00:00,24:00,00:00,24:00,,
경기도,비룡중,부설,경기도 안성시 남파로 116,,,비룡중,031-678-9399,00:00,24:00,00:00,24:00,00:00,24:00,00:00,24:00,00:00,24:00,,
경기도,서운중,부설,경기도 안성시 서운면 바우덕이로 25,,,서운중,031-672-9052,00:00,24:00,00:00,24:00,00:00,24:00,00:00,24:00,00:00,24:00,   ,
경기도,안성여중,노상,안성시 중앙2길 111,,,안성여중,031-677-6032,00:00,24:00,00:00,24:00,00:00,24:00,00:00,24:00,00:00,24:00,,
경기도,안성중,부설,경기도 안성시 금산길 43,,,안성중,031-673-2142,00:00,24:00,00:00,24:00,00:00,24:00,00:00,24:00,00:00,24:00,,
경기도,안청중,부설,경기도 안성시 당목길 68,,,안청중,031-673-3124,09:00,21:00,09:00,21:00,09:00,21:00,09:00,21:00,09:00,21:00,,
경기도,양성중,부설,경기도 안성시 양성면 양성로 51,,,양성중,031-670-7940,00:00,24:00,00:00,24:00,00:00,24:00,00:00,24:00,00:00,24:00,,
경기도,양진중,노상,안성시 공도읍 진사1길 37,,,양진중,031-8046-7703,00:00,24:00,00:00,24:00,00:00,24:00,00:00,24:00,00:00,24:00,,
경기도,일죽중,부설,경기도 안성시 일죽면 서동대로 7446,,,일죽고,031-8046-6200,00:00,24:00,00:00,24:00,00:00,24:00,00:00,24:00,00:00,24:00,,
경기도,죽산중,부설,경기도 안성시 죽산면 죽산리318,,,죽산중,031-676-6321,00:00,24:00,00:00,24:00,17:00,24:00,00:00,24:00,00:00,24:00,,
경기도,가온고,부설,경기도 안성시 샛터길 46,,,가온고,031-674-5022,00:00,24:00,00:00,24:00,17:00,24:00,00:00,24:00,00:00,24:00,,
경기도,경기창조고,부설,경기도안성시공도읍공도5로37,,,경기창조고,031-651-2234,00:00,24:00,00:00,24:00,00:00,24:00,00:00,24:00,00:00,24:00,,
경기도,안법고,부설,경기도 안성시 명륜길66(구포동),,,안법고,070-4020-1564,00:00,24:00,00:00,24:00,17:00,24:00,00:00,24:00,00:00,17:00,,
경기도,안성고,부설,경기도 안성시 금산길 57,,,안성고,031-670-0301,00:00,24:00,00:00,24:00,00:00,24:00,00:00,24:00,00:00,24:00,,
경기도,안성여고,노상,경기도 안성시 남파로 73-10,,,안성여고,031-8056-0105,00:00,24:00,00:00,24:00,00:00,24:00,00:00,24:00,00:00,24:00,,
경기도,일죽고,부설,경기도 안성시 일죽면 서동대로 7446,,,일죽고,031-8046-6200,00:00,24:00,00:00,24:00,00:00,24:00,00:00,24:00,00:00,24:00,,
경기도,죽산고,부설,경기도 안성시 죽산면 죽산향교길 54-40,,,죽산고,031-8056-6600,00:00,24:00,00:00,24:00,17:00,24:00,00:00,24:00,00:00,24:00,,
경기도,학길학교,부설,"경기도 안성시 고삼면
고삼호수로 31-25",,,한길학교,031-677-9044,00:00,24:00,00:00,24:00,00:00,24:00,00:00,24:00,00:00,24:00,,
경기도,양평유,부설,경기도 양평군 양평읍 시민로24번길49,,,양평유,031-775-6962,00:00,24:00,00:00,24:00,00:00,24:00,00:00,24:00,00:00,24:00,,
경기도,강상초,부설,경기도 양평군 강상면 신화길 86,,,강상초,031-774-6311,00:00,24:00,00:00,24:00,00:00,24:00,00:00,24:00,00:00,24:00,,
경기도,강하초,노외,양평군 강하면 운심길 34,,,강하초,031-774-7174,00:00,24:00,00:00,24:00,00:00,24:00,00:00,24:00,00:00,24:00,,
경기도,개군초,부설,경기도 양평군 개군면 자진개1길 23,,,개군초,031-772-8008,00:00,24:00,00:00,24:00,00:00,24:00,00:00,24:00,00:00,24:00,,
경기도,곡수초,부설,경기도 양평군 지평면 곡수길56번길 17,,,곡수초,031-772-9392,00:00,24:00,00:00,24:00,00:00,24:00,00:00,24:00,00:00,24:00,,
경기도,다문초,부설,경기 양평군 용문면 다문중앙2길 27,,,다문초,031-771-1718,00:00,24:00,00:00,24:00,00:00,24:00,00:00,24:00,00:00,24:00,,
경기도,대아초,부설,경기도 양평군 양서면 방죽들길5,,,대아초,031-771-9169,00:00,24:00,00:00,24:00,00:00,24:00,00:00,24:00,00:00,24:00,,
경기도,서종초,부설,경기도 양평군 서종면 북한강로 789,,,서종초,774-3707,00:00,24:00,00:00,24:00,00:00,24:00,00:00,24:00,00:00,24:00,,
경기도,세월초,부설,경기도 양평군 강상면 세월길147번길 2,,,세월초,031-774-7434,00:00,24:00,00:00,24:00,00:00,24:00,00:00,24:00,00:00,24:00,,
경기도,수입초,노외,경기도 양평군 서종면 무드리2길20,,,수입초,031-774-6219,07:00,21:00,07:00,21:00,07:00,21:00,07:00,21:00,07:00,21:00,,
경기도,양동초,"부설,노외",경기도 양평군 양동면 양동로1671,,,양동초,031-774-6146,00:00,24:00,00:00,24:00,00:00,24:00,00:00,24:00,00:00,24:00,,
경기도,양동초고송분교장,부설,경기도 양평군 양동면 고송실 32-16,,,양동초고송분교장,031-773-1173,00:00,24:00,00:00,24:00,00:00,24:00,00:00,24:00,00:00,24:00,,
경기도,양수초,부설,경기도 양평군 양서면 용담3길15,,,양수초,031-772-2722,00:00,24:00,00:00,24:00,00:00,24:00,00:00,24:00,00:00,24:00,,
경기도,양평단월초,부설,경기도 양평군 단월면 보룡길 65,,,양평단월초,031-774-1323,00:00,24:00,00:00,24:00,00:00,24:00,00:00,24:00,00:00,24:00,,
경기도,양평동초,부설,경기도 양평군 양평읍 창대길 20-8,,,양평동초,031-774-4407,00:00,24:00,00:00,24:00,00:00,24:00,00:00,24:00,00:00,24:00,,
경기도,옥천초,노상,경기도 양평군 옥천면 옥천길 51,,,옥천초,031-772-5184,00:00,24:00,00:00,24:00,00:00,24:00,00:00,24:00,00:00,24:00,,
경기도,옥천초,부설,경기도 양평군 옥천면 옥천길 51,,,옥천초,031-772-5184,미개방,미개방,09:00,22:00,미개방,미개방,09:00,22:00,09:00,22:00,,
경기도,용문초,부설,경기도 양평군 용문면 용문로 837,,,용문초,031-773-3032,00:00,24:00,00:00,24:00,00:00,24:00,00:00,24:00,00:00,24:00,,
경기도,원덕초,노상,경기도 양평군 양평읍 원덕흑천길 180,,,원덕초,031-774-2874,00:00,24:00,00:00,24:00,17:00,24:00,00:00,24:00,00:00,24:00,,
경기도,정배초,"부설,노외",경기도 양평군 서종면 명덕길10,,,정배초,031-773-5376,00:00,24:00,00:00,24:00,17:00,24:00,00:00,24:00,00:00,24:00, 부설주차장은 공사로 인하여 미개방 ,
경기도,지평초,노상,지평면 지평리 502-2,,,지평초,031-773-7221,07:00,21:00,07:00,21:00,06:00,21:00,06:00,21:00,06:00,21:00,,
경기도,청운초,부설,경기도 양평군 청운면 용두로156번길 30,,,청운초,031-773-9009,00:00,24:00,00:00,24:00,00:00,24:00,00:00,24:00,00:00,24:00,,
경기도,강하중,노상,경기도 양평군 강하면 왕창부로길 74-3,,,강하중,031-772-4067,00:00,24:00,00:00,24:00,00:00,24:00,00:00,24:00,00:00,24:00,,
경기도,국수중,부설,경기도 양평군 대심상심길 17,,,양평전자과학고,031-772-7302,00:00,24:00,00:00,24:00,00:00,24:00,00:00,24:00,00:00,24:00,,
경기도,양수중,부설,경기도 양평군 양서면 용담3길15,,,양수중,031-772-2722,00:00,24:00,00:00,24:00,00:00,24:00,00:00,24:00,00:00,24:00,,
경기도,양평중,노상,경기도 양평군 양평읍 양평중학교길 29,,,양평중,031-772-2746,00:00,24:00,00:00,24:00,00:00,24:00,00:00,24:00,00:00,24:00,,
경기도,지평중,부설,경기도 양평군 지평면 지평로 418,,,지평중,031-773-7842,00:00,24:00,00:00,24:00,00:00,24:00,00:00,24:00,00:00,24:00,,
경기도,청운중,부설,경기도 양평군 청운면 청운로28,,,청운중,031-773-9008,00:00,24:00,00:00,24:00,00:00,24:00,00:00,24:00,00:00,24:00,,
경기도,개군중,부설,경기도 양평군 개군면 추읍로 15,,,개군중,031-772-8005,00:00,24:00,00:00,24:00,00:00,24:00,00:00,24:00,00:00,12:00,,
경기도,단월중,부설,경기도 양평군 단월면 보룡길 83,,,단월중,031-773-0214,09:00,18:00,09:00,18:00,09:00,18:00,09:00,18:00,09:00,18:00,,
경기도,서종중,부설,경기도 양평군 서종면 북한강로 854,,,서종중,031-772-3840,00:00,24:00,00:00,24:00,00:00,24:00,00:00,24:00,00:00,24:00,,
경기도,양동중,부설,경기도 양평군 양동면 학둔지윗길 47-7,,,학교,031-773-1032,00:00,24:00,00:00,24:00,00:00,24:00,00:00,24:00,00:00,24:00,,
경기도,양일중,부설,경기도 양평군 양평읍 관문2길 9,,,양일중,031-772-2281,00:00,24:00,00:00,24:00,00:00,24:00,00:00,24:00,00:00,24:00,,
경기도,양평고,부설,경기도 양평군 양평읍 양근로 260,,,양평고,031-772-2747,00:00,24:00,00:00,24:00,00:00,24:00,00:00,24:00,00:00,24:00,,
경기도,양평전자과학고,부설,경기도 양평군 대심상심길 13,,,양평전자과학고,031-772-7302,00:00,24:00,00:00,24:00,00:00,24:00,00:00,24:00,00:00,24:00,,
경기도,지평고,부설,경기도 양평군 지평면 지평로 418,,,지평고,031-773-7842,00:00,24:00,00:00,24:00,00:00,24:00,00:00,24:00,00:00,24:00,,
경기도,청운고,부설,경기도 양평군 청운면 청운로 28,,,청운고,031-773-9008,00:00,24:00,00:00,24:00,00:00,24:00,00:00,24:00,00:00,24:00,,
경기도,양동고,부설,경기도 양평군 양동면 학둔지윗길 47-7,,,학교,031-773-1032,00:00,24:00,00:00,24:00,00:00,24:00,00:00,24:00,00:00,24:00,,
경기도,양서고,노외,경기도 양평군 양서면 상촌길 31-12,,,양서고,031-770-1400,00:00,24:00,00:00,24:00,00:00,24:00,00:00,24:00,00:00,24:00,,
경기도,양일고,부설,경기도 양평군 양평읍 관문2길 9,,,양일고,031-772-2281,00:00,24:00,00:00,24:00,00:00,24:00,00:00,24:00,00:00,24:00,,
경기도,양평교육지원청,부설,경기도 양평군 양평읍 양근강변길 126,,,양평교육지원청,031-770-5213,00:00,24:00,00:00,24:00,00:00,24:00,00:00,24:00,00:00,24:00,,
경기도,가남초,노외,경기도 여주시 가남읍 태평4길 2,,,가남초,031-883-5455,00:00,24:00,00:00,24:00,00:00,24:00,00:00,24:00,00:00,24:00,,
경기도,강천초,노외,경기도 여주시 강천면 마감로 313,,,강천초,031-881-1355,00:00,24:00,00:00,24:00,00:00,24:00,00:00,24:00,00:00,24:00,,
경기도,금당초,부설,경기도 여주시 가남읍 가남로 649,,,금당초,031-884-7687,00:00,24:00,00:00,24:00,17:00,24:00,00:00,24:00,00:00,24:00,,
경기도,능북초,노외,경기도 여주시 능서면 백석1길 8-16,,,능북초,031-882-4347,00:00,24:00,00:00,24:00,17:00,24:00,00:00,24:00,00:00,24:00,,
경기도,대신초,부설,경기도 여주시 대신면 여양로 1440,,,대신초,031-882-7619,00:00,24:00,00:00,24:00,00:00,24:00,00:00,24:00,00:00,24:00, 후문쪽 주차장 이용 ,
경기도,매류초,부설,경기도 여주시 능서면 양화로 592,,,매류초,031-884-8729,09:00,20:00,09:00,22:00,09:00,22:00,09:00,22:00,09:00,22:00,,
경기도,문장초,부설,경기도 여주시 흥천면 문바실길 20,,,문장초,031-883-0404,00:00,24:00,00:00,24:00,00:00,24:00,00:00,24:00,00:00,24:00,,
경기도,북내초,부설,경기도 여주시 북내면 여양2로 304,,,북내초,031-882-0106,00:00,24:00,00:00,24:00,00:00,24:00,00:00,24:00,00:00,24:00,,
경기도,북내초 운암분교,부설,경기도 여주시 북내면 당전로 284,,,북내초,031-882-0174,00:00,24:00,00:00,24:00,00:00,24:00,00:00,24:00,00:00,24:00,,
경기도,북내초 도전분교,부설,경기도 여주시 강천면 원양1로 716,,,북내초,031-886-6212,00:00,24:00,00:00,24:00,00:00,24:00,00:00,24:00,00:00,24:00,,
경기도,상품초,부설,경기도 여주시 산북면 금품1로 15,,,상품초,031-883-0077,00:00,24:00,00:00,24:00,17:00,24:00,00:00,24:00,00:00,24:00,,
경기도,세종초,부설,경기도 여주시 세종로204-19,,,세종초,031-880-2695,미개방,미개방,08:30,19:00,미개방,미개방,08:30,19:00,08:30,19:00,,
경기도,송삼초,부설,경기도 여주시 가남읍 송삼로 165,,,송삼초,031-882-5463,00:00,24:00,00:00,24:00,00:00,24:00,00:00,24:00,00:00,24:00,,
경기도,송촌초,부설,경기도 여주시 대신면 여양1로237,,,송촌초,031-881-1914,08:40,16:40,08:40,16:40,08:40,16:40,08:40,16:40,08:40,16:40,,
