,시도,주차장명,주차장유형,주소,위도,경도,관리기관,전화번호,특이사항,9.22(토),9.23(일),9.24(월),9.25(화),9.26(수)
0,충청북도,충북도청부설주차장,부설,충청북도 청주시 상당구 상당로 82,36.6358093,127.49133379999999,충청북도 총무과,043-220-2516,휴일만 개방,"22,06:00~22:00","23,06:00~22:00","24,06:00~22:00","25,06:00~22:00","26,06:00~22:00"
1,충청북도,청주시청 부설 주차장,부설,충청북도 청주시 상당구 상당고 155(북문로3가),36.6413283,127.4896446,청주시 행정지원과,043-201-1513,,"22,20:00~24:00","23,00:00~24:00","24,00:00~24:00","25,00:00~24:00","26,00:00~24:00"
2,충청북도,청주시 청원구청,부설,충청북도 청주시 청원구 직지대로 871,36.651412,127.4863156,충청북도 청원구청,043-201-8047,24시간 개방,"22,20:00~24:00","23,00:00~24:00","24,00:00~24:00","25,00:00~24:00","26,00:00~24:00"
3,충청북도,어린이회관 주차장,부설,충청북도 청주시 상당구 명암동 73-4,36.6497156,127.51482539999999,청주랜드관리사업소,043-201-4863,24시간 개방,"22,00:00~24:00","23,00:00~24:00","24,00:00~24:00","25,00:00~24:00","26,00:00~24:00"
4,충청북도,청주시립미술관 주차장,노외,충청북도 청주시 서원구 충렬로18번길 50,36.640156700000006,127.48111340000001,청주시립미술관,043-201-2650,설날 당일 휴관,"22,10:00~17:00","23,10:00~17:00",,"25,10:00~17:00","26,10:00~17:00"
5,충청북도,청주시 상당구청,부설,충청북도 청주시 상당구 상당로69번길 38,36.6346225,127.48820390000002,충북청주시상당구청,043-201-5014,주차장협소,"22,20:00~24:00","23,00:00~24:00","24,00:00~24:00","25,00:00~24:00","26,00:00~24:00"
6,충청북도,청주 체육시설 부설 주차장,부설,충청북도 청주시 서원구 사직동 808 번지 일대,36.637589500000004,127.4698136,충청북도 청주시청 체육시설관리과,043-201-2375,휴일 상시개방,"22,00:00~24:00","23,00:00~24:00","24,00:00~24:00","25,00:00~24:00","26,00:00~24:00"
7,충청북도,청주시 흥덕구청,부설,충청북도 청주시 흥덕구 복대1동 대농로 88 ,36.643276,127.42643580000001,청주시 흥덕구청,043-201-7222,24시간 개방,"22,20:00~24:00","23,00:00~24:00","24,00:00~24:00","25,00:00~24:00","26,00:00~24:00"
8,충청북도,청주시 서원구청,부설,충청북도 청주시 서원구 사직대로 227,36.637589500000004,127.4698136,청주시 서원구청,043-201-6222,24시간 개방,"22,20:00~24:00","23,00:00~24:00","24,00:00~24:00","25,00:00~24:00","26,00:00~24:00"
9,충청북도,청주시 농업기술센터 야외 운동장,노외,충청북도 청주시 상당구 남일면 단재로 480,36.588251,127.50530900000001,청주시농업기술센터,043-201-3815,"24시간 개방, 소형차(1톤이하)에 한함.","22,00:00~24:00","23,00:00~24:00","24,00:00~24:00","25,00:00~24:00","26,00:00~24:00"
10,충청북도,충주천 제3공영주차장,노외,충청북도 충주시 지현동 6,36.9710353,127.92920090000001,충주시청,043-850-6323,24시간 무료개방,"22,00:00~24:00","23,00:00~24:00","24,00:00~24:00","25,00:00~24:00","26,00:00~24:00"
11,충청북도,충의공영주차장,노외,충청북도 충주시 충의동 35,36.975541299999996,127.92954040000001,충주시청,043-850-6323,3일 무료개방,,,"24,00:00~24:00","25,00:00~24:00","26,00:00~24:00"
12,충청북도,교현천공영주차장,노외,충청북도 충주시 충의동 47,36.975575899999995,127.9302379,충주시청,043-850-6323,3일 무료개방,,,"24,00:00~24:00","25,00:00~24:00","26,00:00~24:00"
13,충청북도,남산등산로주차장,노외,충청북도 충주시 교현동 21-2,36.962796000000004,127.9506398,충주시청,043-850-6323,24시간 무료개방,"22,00:00~24:00","23,00:00~24:00","24,00:00~24:00","25,00:00~24:00","26,00:00~24:00"
14,충청북도,문화동제1도심주차장,노외,충청북도 충주시 문화동 1436,36.970854200000005,127.9234821,충주시청,043-850-6323,24시간 무료개방,"22,00:00~24:00","23,00:00~24:00","24,00:00~24:00","25,00:00~24:00","26,00:00~24:00"
15,충청북도,용산동제1도심주차장,노외,충청북도 충주시 용산동 1233,36.9634525,127.9381818,충주시청,043-850-6323,24시간 무료개방,"22,00:00~24:00","23,00:00~24:00","24,00:00~24:00","25,00:00~24:00","26,00:00~24:00"
16,충청북도,연수동 제1도심주차장,노외,충청북도 충주시 연수동 1631,36.9832994,127.9447933,충주시청,043-850-6323,24시간 무료개방,"22,00:00~24:00","23,00:00~24:00","24,00:00~24:00","25,00:00~24:00","26,00:00~24:00"
17,충청북도,지현동 제2도심주차장,노외,충청북도 충주시 지현동 1090,36.9628903,127.930328,충주시청,043-850-6323,24시간 무료개방,"22,00:00~24:00","23,00:00~24:00","24,00:00~24:00","25,00:00~24:00","26,00:00~24:00"
18,충청북도,지현동 제3도심주차장,노외,충청북도 충주시 지현동 322,36.969619099999996,127.93005459999999,충주시청,043-850-6323,24시간 무료개방,"22,00:00~24:00","23,00:00~24:00","24,00:00~24:00","25,00:00~24:00","26,00:00~24:00"
19,충청북도,연수동 제2도심주차장,노외,충청북도 충주시 연수동 1538,36.9841852,127.941061,충주시청,043-850-6323,24시간 무료개방,"22,00:00~24:00","23,00:00~24:00","24,00:00~24:00","25,00:00~24:00","26,00:00~24:00"
20,충청북도,교현2동 제1도심주차장,노외,충청북도 충주시 교현동 626-6,36.97995969999999,127.92660579999999,충주시청,043-850-6323,24시간 무료개방,"22,00:00~24:00","23,00:00~24:00","24,00:00~24:00","25,00:00~24:00","26,00:00~24:00"
21,충청북도,지현동 제3도심주차장,노외,충청북도 충주시 지현동 1115,36.9629661,127.93050649999999,충주시청,043-850-6323,24시간 무료개방,"22,00:00~24:00","23,00:00~24:00","24,00:00~24:00","25,00:00~24:00","26,00:00~24:00"
22,충청북도,용산동 제2도심주차장,노외,충청북도 충주시 용산동 1243,36.9636335,127.9380503,충주시청,043-850-6323,24시간 무료개방,"22,00:00~24:00","23,00:00~24:00","24,00:00~24:00","25,00:00~24:00","26,00:00~24:00"
23,충청북도,교현안림동 제1도심주차장,노외,충청북도 충주시 교현동 195,36.973667,127.93959209999998,충주시청,043-850-6323,24시간 무료개방,"22,00:00~24:00","23,00:00~24:00","24,00:00~24:00","25,00:00~24:00","26,00:00~24:00"
24,충청북도,연수동 제3도심주차장,노외,충청북도 충주시 연수동 1466,36.983124,127.9382311,충주시청,043-850-6323,24시간 무료개방,"22,00:00~24:00","23,00:00~24:00","24,00:00~24:00","25,00:00~24:00","26,00:00~24:00"
25,충청북도,문화동 제2도심주차장,노외,충청북도 충주시 문화동 1569,36.9718734,127.92624740000002,충주시청,043-850-6323,24시간 무료개방,"22,00:00~24:00","23,00:00~24:00","24,00:00~24:00","25,00:00~24:00","26,00:00~24:00"
26,충청북도,수안보공영주차장,노외,충청북도 충주시 수안보면 온천리 218-2,36.8467715,127.99019879999999,충주시청,043-850-6323,24시간 무료개방,"22,00:00~24:00","23,00:00~24:00","24,00:00~24:00","25,00:00~24:00","26,00:00~24:00"
27,충청북도,교현안림동 제2도심주차장,노외,충청북도 충주시 교현동 415-10,36.976194899999996,127.93640249999999,충주시청,043-850-6323,24시간 무료개방,"22,00:00~24:00","23,00:00~24:00","24,00:00~24:00","25,00:00~24:00","26,00:00~24:00"
28,충청북도,목행시장,노외,충청북도 충주시 목행동 608-24,37.0134766,127.918314,충주시 목행시장상인회,-,24시간 무료개방,"22,00:00~24:00","23,00:00~24:00","24,00:00~24:00","25,00:00~24:00","26,00:00~24:00"
29,충청북도,충주천 제1공영주차장,노외,충청북도 충주시 성서동 50,36.9723768,127.93016440000001,충주시 시설관리공단,043-870-7896,4일 무료개방,,"23,00:00~24:00","24,00:00~24:00","25,00:00~24:00","26,00:00~24:00"
30,충청북도,충주천 제2공영주차장,노외,충청북도 충주시 성서동 453,36.9703876,127.9312321,충주시 시설관리공단,043-870-7897,4일 무료개방,,"23,00:00~24:00","24,00:00~24:00","25,00:00~24:00","26,00:00~24:00"
31,충청북도,칠금 공영주차장,노외,충청북도 충주시 칠금동 1017,36.980714899999995,127.915815,충주시 시설관리공단,043-870-7898,4일 무료개방,,"23,00:00~24:00","24,00:00~24:00","25,00:00~24:00","26,00:00~24:00"
32,충청북도,금릉 공영주차장,노외,충청북도 충주시 금릉동 730,36.9887763,127.92748590000002,충주시 시설관리공단,043-870-7899,4일 무료개방,,"23,00:00~24:00","24,00:00~24:00","25,00:00~24:00","26,00:00~24:00"
33,충청북도,노상1지구,노상,충청북도 제천시 중앙로1가221-1,37.13718529999999,128.2114214,제천시 교통과,043-641-6354,유료,,,"24,00:00~24:00","25,00:00~24:00","26,00:00~24:00"
34,충청북도,노상2지구,노상,충청북도 제천시 중앙로2가160,37.1419194,128.2127144,제천시 교통과,043-641-6354,유료,,,"24,00:00~24:00","25,00:00~24:00","26,00:00~24:00"
35,충청북도,노상4지구,노상,충청북도 제천시 중앙로2가164,37.1399151,128.2127955,제천시 교통과,043-641-6354,유료,,,"24,00:00~24:00","25,00:00~24:00","26,00:00~24:00"
36,충청북도,노상5지구,노상,충청북도 제천시 명동339,37.1375727,128.207931,제천시 교통과,043-641-6354,유료,,,"24,00:00~24:00","25,00:00~24:00","26,00:00~24:00"
37,충청북도,노상7지구,노상,충청북도 제천시 중앙로2가160,37.1419194,128.2127144,제천시 교통과,043-641-6354,유료,,,"24,00:00~24:00","25,00:00~24:00","26,00:00~24:00"
38,충청북도,동문시장지구,노상,충청북도 제천시 중앙로2가160,37.1419194,128.2127144,제천시 교통과,043-641-6354,유료,,,"24,00:00~24:00","25,00:00~24:00","26,00:00~24:00"
39,충청북도,중앙교차로,노상,충청북도 제천시 중앙로2가 158,37.1399524,128.21156979999998,제천시 교통과,043-641-6354,유료,,,"24,00:00~24:00","25,00:00~24:00","26,00:00~24:00"
40,충청북도,용두천5지구,노상,충청북도 제천시 명동 248-2,37.1330157,128.20634840000002,제천시 교통과,043-641-6354,유료,,,"24,00:00~24:00","25,00:00~24:00","26,00:00~24:00"
41,충청북도,명동교차로,노상,충청북도 제천시 중앙로1가 224,37.136370899999996,128.2097556,제천시 교통과,043-641-6354,유료,,,"24,00:00~24:00","25,00:00~24:00","26,00:00~24:00"
42,충청북도,역전교차로,노상,충청북도 제천시 영천동 506,37.13045,128.2064461,제천시 교통과,043-641-6354,유료,,,"24,00:00~24:00","25,00:00~24:00","26,00:00~24:00"
43,충청북도,용두천1지구,노상,충청북도 제천시 중앙로2가 160,37.1419194,128.2127144,제천시 교통과,043-641-6354,유료,,,"24,00:00~24:00","25,00:00~24:00","26,00:00~24:00"
44,충청북도,용두천2지구,노상,충청북도 제천시 중앙로1가 210,37.1380107,128.2134576,제천시 교통과,043-641-6354,유료,,,"24,00:00~24:00","25,00:00~24:00","26,00:00~24:00"
45,충청북도,내토시장지구,노상,충청북도 제천시 중앙로1가 210,37.1380107,128.2134576,제천시 교통과,043-641-6354,유료,,,"24,00:00~24:00","25,00:00~24:00","26,00:00~24:00"
46,충청북도,용두천3지구,노상,충청북도 제천시 남천동 1187,37.1353213,128.2106407,제천시 교통과,043-641-6354,유료,,,"24,00:00~24:00","25,00:00~24:00","26,00:00~24:00"
47,충청북도,용두천4지구,노상,충청북도 제천시 명동 226-1,37.13374750000001,128.2078361,제천시 교통과,043-641-6354,유료,,,"24,00:00~24:00","25,00:00~24:00","26,00:00~24:00"
48,충청북도,중앙시장지구,노상,충청북도 제천시 남천동 401,37.13615679999999,128.21209050000002,제천시 교통과,043-641-6354,유료,,,"24,00:00~24:00","25,00:00~24:00","26,00:00~24:00"
49,충청북도,용두천7지구,노상,충청북도 제천시 남천동 401,37.13615679999999,128.21209050000002,제천시 교통과,043-641-6354,유료,,,"24,00:00~24:00","25,00:00~24:00","26,00:00~24:00"
50,충청북도,역전시장지구,노외,충청북도 제천시 화산동 201-1,37.1321346,128.2077765,제천시 교통과,043-641-6354,유료,,,"24,00:00~24:00","25,00:00~24:00","26,00:00~24:00"
51,충청북도,역전2주차장,노외,충청북도 제천시 영천동 537,37.128871600000004,128.2051509,제천시 교통과,043-641-6354,유료,,,"24,00:00~24:00","25,00:00~24:00","26,00:00~24:00"
52,충청북도,시민주차타워,노외,충청북도 제천시 중앙로2가29-11,37.1386663,128.2101829,제천시 교통과,043-641-6354,유료,,,"24,00:00~24:00","25,00:00~24:00","26,00:00~24:00"
53,충청북도,노상6지구,노상,충청북도 제천시 중앙로2가 159,37.1399055,128.2100692,제천시 교통과,043-641-6354,유료,,,"24,00:00~24:00","25,00:00~24:00","26,00:00~24:00"
54,충청북도,중앙시장2지구,노상,충청북도 제천시 중앙로1가45-1,37.1369043,128.2118562,제천시 교통과,043-641-6354,유료,,,"24,00:00~24:00","25,00:00~24:00","26,00:00~24:00"
55,충청북도,청전주차타워,노외,충청북도 제천시 청전동655,37.1489406,128.2114158,제천시 교통과,043-641-6354,무료주차장,"22,00:00~24:00","23,00:00~24:00","24,00:00~24:00","25,00:00~24:00","26,00:00~24:00"
56,충청북도,구)동명초임시주차장,노외,충청북도 제천시 명동 68,37.13615679999999,128.2085371,제천시 지역개발과,043-641-6266,무료주차장,"22,00:00~24:00","23,00:00~24:00","24,00:00~24:00","25,00:00~24:00","26,00:00~24:00"
57,충청북도,보은전통시장,부설,충청북도 보은군 보은읍 삼산리 137-1,36.483732,127.7203629,충청북도 보은군,043-540-3232,무료(2018. 9. 24 ~ 9. 26.),"22,-~-","23,-~-","24,0:00:00~24:00","25,0:00:00~24:00","26,0:00:00~24:00"
58,충청북도,보은종합시장주차장,부설,충청북도 보은군보은군 보은읍 삼산리 31-1 외 2필지,36.4845406,127.7170672,충청북도 보은군,043-540-3232,무료(2018. 9. 22. ~ 9. 26.),"22,0:00:00~24:00","23,0:00:00~24:00","24,0:00:00~24:00","25,0:00:00~24:00","26,0:00:00~24:00"
59,충청북도,보은도서관,노상,충청북도 보은군 보은읍 삼산리 125-4,36.484076,127.7160615,충청북도 보은군,043-540-3097,무료,"22,0:00:00~24:00","23,0:00:00~24:00","24,0:00:00~24:00","25,0:00:00~24:00","26,0:00:00~24:00"
60,충청북도,대신리치빌아파트,노상,충청북도 보은군 보은읍 삼산리 151-25,36.4859736,127.7181528,충청북도 보은군,043-540-3097,무료,"22,0:00:00~24:00","23,0:00:00~24:00","24,0:00:00~24:00","25,0:00:00~24:00","26,0:00:00~24:00"
61,충청북도,한솔식당,노상,충청북도 보은군 보은읍 교사리 87-16,36.4883576,127.7174879,충청북도 보은군,043-540-3097,무료,"22,0:00:00~24:00","23,0:00:00~24:00","24,0:00:00~24:00","25,0:00:00~24:00","26,0:00:00~24:00"
62,충청북도,삼성연립,노상,충청북도 보은군 보은읍 장신리 38-11,36.482285600000004,127.71353799999999,충청북도 보은군,043-540-3097,무료,"22,0:00:00~24:00","23,0:00:00~24:00","24,0:00:00~24:00","25,0:00:00~24:00","26,0:00:00~24:00"
63,충청북도,통계슈퍼,노상,충청북도 보은군 보은읍 삼산리 175-43,36.484477899999995,127.7141404,충청북도 보은군,043-540-3097,무료,"22,0:00:00~24:00","23,0:00:00~24:00","24,0:00:00~24:00","25,0:00:00~24:00","26,0:00:00~24:00"
64,충청북도,진화아파트,노상,충청북도 보은군 보은읍 삼산리 171-4,36.487500299999994,127.7154798,충청북도 보은군,043-540-3097,무료,"22,0:00:00~24:00","23,0:00:00~24:00","24,0:00:00~24:00","25,0:00:00~24:00","26,0:00:00~24:00"
65,충청북도,동다리하상,노외,충청북도 보은군 보은읍 교사리 440-1,36.4923412,127.7221412,충청북도 보은군,043-540-3097,무료,"22,0:00:00~24:00","23,0:00:00~24:00","24,0:00:00~24:00","25,0:00:00~24:00","26,0:00:00~24:00"
66,충청북도,남다리하상,노외,충청북도 보은군 보은읍 죽전리 132-4,36.4806834,127.72010490000001,충청북도 보은군,043-540-3097,무료,"22,0:00:00~24:00","23,0:00:00~24:00","24,0:00:00~24:00","25,0:00:00~24:00","26,0:00:00~24:00"
67,충청북도,송화식당,노외,충청북도 보은군 보은읍 삼산리 195-1,36.48499520000001,127.7129924,충청북도 보은군,043-540-3097,무료,"22,0:00:00~24:00","23,0:00:00~24:00","24,0:00:00~24:00","25,0:00:00~24:00","26,0:00:00~24:00"
68,충청북도,정이품송,노외,충청북도 보은군 속리산면 상판리 241,36.5189426,127.81609640000002,충청북도 보은군,043-540-3097,무료,"22,0:00:00~24:00","23,0:00:00~24:00","24,0:00:00~24:00","25,0:00:00~24:00","26,0:00:00~24:00"
69,충청북도,삼승 재래시장,노외,충청북도 보은군  삼승면 원남리 190-2,36.395863399999996,127.73245559999998,충청북도 보은군,043-540-3097,무료,"22,0:00:00~24:00","23,0:00:00~24:00","24,0:00:00~24:00","25,0:00:00~24:00","26,0:00:00~24:00"
70,충청북도,삼승농협,노외,충청북도 보은군 삼승면 원남리 199,36.3960955,127.73187630000001,충청북도 보은군,043-540-3097,무료,"22,0:00:00~24:00","23,0:00:00~24:00","24,0:00:00~24:00","25,0:00:00~24:00","26,0:00:00~24:00"
71,충청북도,옥천체육센터 주차장,노외,충청북도 옥천군 옥천읍 문정리 384-10,36.302239799999995,127.57544890000001,충청북도 옥천군청,043-730-4863,무료,"22,00:00~24:00","23,00:00~24:00","24,00:00~24:00","25,00:00~24:00","26,13:00~24:00"
72,충청북도,옥천생활체육관 주차장,노외,충청북도 옥천군 옥천읍 문정리 408-15,36.3037809,127.57518999999999,충청북도 옥천군청,043-730-4863,무료,"22,00:00~24:00","23,00:00~24:00","24,00:00~24:00","25,00:00~24:00","26,14:00~24:00"
73,충청북도,옥천국민체육센터 주차장,노외,충청북도 옥천군 옥천읍 문정리 420-2,36.30625270000001,127.57787569999999,충청북도 옥천군청,043-730-4863,무료,"22,00:00~24:00","23,00:00~24:00","24,00:00~24:00","25,00:00~24:00","26,15:00~24:00"
74,충청북도,김밥천국~충북도립대,노상,충청북도 옥천군 옥천읍 금구리 18-10,36.300946100000004,127.5692919,충청북도 옥천군청,043-730-3534,무료,"22,00:00~24:00","23,00:00~24:00","24,00:00~24:00","25,00:00~24:00","26,16:00~24:00"
75,충청북도,중앙의원~경찰서,노상,충청북도 옥천군 옥천읍 금구리 263-3,36.2997534,127.56694590000001,충청북도 옥천군청,043-730-3534,무료,"22,00:00~24:00","23,00:00~24:00","24,00:00~24:00","25,00:00~24:00","26,17:00~24:00"
76,충청북도,옥천농협~가화교,노상,충청북도 옥천군 옥천읍 금구리 169-2,36.301728000000004,127.56669109999999,충청북도 옥천군청,043-730-3534,무료,"22,00:00~24:00","23,00:00~24:00","24,00:00~24:00","25,00:00~24:00","26,18:00~24:00"
77,충청북도,시장철물~옥천농협,노상,충청북도 옥천군 옥천읍 금구리 5-3,36.302315899999996,127.56850829999999,충청북도 옥천군청,043-730-3534,무료,"22,00:00~24:00","23,00:00~24:00","24,00:00~24:00","25,00:00~24:00","26,19:00~24:00"
78,충청북도,금구천 하상주차장,노외,충청북도 옥천군 옥천읍 금구리 263-3,36.2997534,127.56694590000001,충청북도 옥천군청,043-730-3534,무료,"22,00:00~24:00","23,00:00~24:00","24,00:00~24:00","25,00:00~24:00","26,00:00~24:00"
79,충청북도,(구)채소시장 주차장,노외,충청북도 옥천군 옥천읍 금구리 5-66,36.3020252,127.5688729,충청북도 옥천군청,043-730-3534,무료,"22,00:00~24:00","23,00:00~24:00","24,00:00~24:00","25,00:00~24:00","26,00:00~24:00"
80,충청북도,(구)신협 앞 주차장,노외,충청북도 옥천군 옥천읍 금구리 23-1,36.3015763,127.57011909999999,충청북도 옥천군청,043-730-3534,무료,"22,00:00~24:00","23,00:00~24:00","24,00:00~24:00","25,00:00~24:00","26,00:00~24:00"
81,충청북도,옥천공영주차타워,노외,충청북도 옥천군 옥천읍 금구리 184-2,36.3015951,127.5658245,충청북도 옥천군청,043-730-3534,무료,"22,00:00~24:00","23,00:00~24:00","24,00:00~24:00","25,00:00~24:00","26,00:00~24:00"
82,충청북도,보건소 앞 주차장,노외,충청북도 옥천군 옥천읍 삼양리 161-108,36.3041016,127.5693459,충청북도 옥천군청,043-730-3534,무료,"22,00:00~24:00","23,00:00~24:00","24,00:00~24:00","25,00:00~24:00","26,00:00~24:00"
83,충청북도,새터 주차장,노외,충청북도 옥천군 옥천읍 금구리 154,36.299971299999996,127.5686493,충청북도 옥천군청,043-730-3534,무료,"22,00:00~24:00","23,00:00~24:00","24,00:00~24:00","25,00:00~24:00","26,00:00~24:00"
84,충청북도,구 대가 주차장,노외,충청북도 옥천군 옥천읍 금구리 23-4,36.3010251,127.57045500000001,충청북도 옥천군청,043-730-3534,무료,"22,00:00~24:00","23,00:00~24:00","24,00:00~24:00","25,00:00~24:00","26,00:00~24:00"
85,충청북도,공설시장 주차타워,노외,충청북도 옥천군 옥천읍 삼양로 7길 9-7,36.3033427,127.5683268,충청북도 옥천군청,043-730-3362,무료,"22,00:00~24:00","23,00:00~24:00","24,00:00~24:00","25,00:00~24:00","26,00:00~24:00"
86,충청북도,선관위 일원 공영주차장,노외,충청북도 옥천군 옥천읍 금구리 113-3,36.296763,127.5669568,충청북도 옥천군청,043-730-3534,무료,"22,00:00~24:00","23,00:00~24:00","24,00:00~24:00","25,00:00~24:00","26,00:00~24:00"
87,충청북도,구 옥천신협 옆 공영주차장,노외,충청북도 옥천군 옥천읍 금구리 23-73,36.3012369,127.57070220000001,충청북도 옥천군청,043-730-3534,무료,"22,00:00~24:00","23,00:00~24:00","24,00:00~24:00","25,00:00~24:00","26,00:00~24:00"
88,충청북도,옥천여중 공영주차장,노외,충청북도 옥천군 옥천읍 문정리 464-8,36.3037158,127.57108390000002,충청북도 옥천군청,043-730-3534,무료,"22,00:00~24:00","23,00:00~24:00","24,00:00~24:00","25,00:00~24:00","26,00:00~24:00"
89,충청북도,청산 공영주차장,노외,충청북도 옥천군 청산면 교평리 257-3,36.3441949,127.79564309999999,충청북도 옥천군청,043-730-3534,무료,"22,00:00~24:00","23,00:00~24:00","24,00:00~24:00","25,00:00~24:00","26,00:00~24:00"
90,충청북도,제방밑주차장,노상,충청북도 영동군 영동읍 영동천2길 47,36.1726593,127.779275,충청북도 영동군청,043-740-3511,,"22,00:00~24:00","23,00:00~24:00","24,00:00~24:00","25,00:00~24:00","26,00:00~24:00"
91,충청북도,서외과옆주차장,노상,충청북도 영동군 영동읍 학산영동로 1241,36.173483000000004,127.77294199999999,충청북도 영동군청,043-740-3511,,"22,00:00~24:00","23,00:00~24:00","24,00:00~24:00","25,00:00~24:00","26,00:00~24:00"
92,충청북도,철도변주차장,노상,충청북도 영동군 영동읍 계산로 87,36.1720597,127.7860898,충청북도 영동군청,043-740-3511,,"22,00:00~24:00","23,00:00~24:00","24,00:00~24:00","25,00:00~24:00","26,00:00~24:00"
93,충청북도,매천교옆주차장,노상,충청북도 영동군 영동읍 계산로 122,36.1697206,127.7889595,충청북도 영동군청,043-740-3511,,"22,00:00~24:00","23,00:00~24:00","24,00:00~24:00","25,00:00~24:00","26,00:00~24:00"
94,충청북도,인삼조합앞주차장,노상,충청북도 영동군 영동읍 구교로 28,36.1764087,127.78028059999998,충청북도 영동군청,043-740-3511,,"22,00:00~24:00","23,00:00~24:00","24,00:00~24:00","25,00:00~24:00","26,00:00~24:00"
95,충청북도,한전옆주차장,노상,충청북도 영동군 영동읍 계산로2길 10,36.173914399999994,127.77855559999999,충청북도 영동군청,043-740-3511,,"22,00:00~24:00","23,00:00~24:00","24,00:00~24:00","25,00:00~24:00","26,00:00~24:00"
96,충청북도,중앙지구대옆주차장,노상,충청북도 영동군 영동읍 중앙로6길 52,36.172984899999996,127.78283130000001,충청북도 영동군청,043-740-3511,,"22,00:00~24:00","23,00:00~24:00","24,00:00~24:00","25,00:00~24:00","26,00:00~24:00"
97,충청북도,용산면주차장,노상,충청북도 영동군 용산면 구촌리 179-1,36.259334700000004,127.8284628,충청북도 영동군청,043-740-3511,,"22,00:00~24:00","23,00:00~24:00","24,00:00~24:00","25,00:00~24:00","26,00:00~24:00"
98,충청북도,영동천주차장,노외,충청북도 영동군 영동읍 계산로2길 40,36.1721086,127.7758806,충청북도 영동군청,043-740-3511,,"22,00:00~24:00","23,00:00~24:00","24,00:00~24:00","25,00:00~24:00","26,00:00~24:00"
99,충청북도,황간천주차장,노외,충청북도 영동군 황간면 남성8길 22,36.231764500000004,127.906525,충청북도 영동군청,043-740-3511,,"22,00:00~24:00","23,00:00~24:00","24,00:00~24:00","25,00:00~24:00","26,00:00~24:00"
100,충청북도,추풍령주차장,노외,충청북도 영동군 추풍령면 추풍령로 444,36.213241100000005,127.9959127,충청북도 영동군청,043-740-3511,,"22,00:00~24:00","23,00:00~24:00","24,00:00~24:00","25,00:00~24:00","26,00:00~24:00"
101,충청북도,학산주차장,노외,충청북도 영동군 학산면 서산로 56,36.09807120000001,127.6838632,충청북도 영동군청,043-740-3511,,"22,00:00~24:00","23,00:00~24:00","24,00:00~24:00","25,00:00~24:00","26,00:00~24:00"
102,충청북도,조심동하상주차장,노외,충청북도 영동군 영동읍 새심길 26,36.168775399999994,127.78809950000002,충청북도 영동군청,043-740-3511,,"22,00:00~24:00","23,00:00~24:00","24,00:00~24:00","25,00:00~24:00","26,00:00~24:00"
103,충청북도,용두교하상주차장,노외,충청북도 영동군 영동읍 계산리 125-3,36.1707951,127.7850027,충청북도 영동군청,043-740-3511,,"22,00:00~24:00","23,00:00~24:00","24,00:00~24:00","25,00:00~24:00","26,00:00~24:00"
104,충청북도,영동역환승주차장,노외,충청북도 영동군 영동읍 계산로 87,36.1720597,127.7860898,충청북도 영동군청,043-740-3511,,"22,00:00~24:00","23,00:00~24:00","24,00:00~24:00","25,00:00~24:00","26,00:00~24:00"
105,충청북도,심천주차장,노외,충청북도 영동군 심천면 심천로5길 5,36.2374092,127.7203237,충청북도 영동군청,043-740-3511,,"22,00:00~24:00","23,00:00~24:00","24,00:00~24:00","25,00:00~24:00","26,00:00~24:00"
106,충청북도,천태산주차장,노외,충청북도 영동군 양산면 영국동길 225,36.15863289999999,127.61007579999999,충청북도 영동군청,043-740-3511,,"22,00:00~24:00","23,00:00~24:00","24,00:00~24:00","25,00:00~24:00","26,00:00~24:00"
107,충청북도,영동고뒤하상주차장,노외,충청북도 영동군 영동읍 새심길 18,36.168853799999994,127.7870989,충청북도 영동군청,043-740-3511,,"22,00:00~24:00","23,00:00~24:00","24,00:00~24:00","25,00:00~24:00","26,00:00~24:00"
108,충청북도,백자전마을공영주차장,노외,충청북도 영동군 용산면 덕진길 69,36.2735027,127.8415112,충청북도 영동군청,043-740-3511,,"22,00:00~24:00","23,00:00~24:00","24,00:00~24:00","25,00:00~24:00","26,00:00~24:00"
109,충청북도,박계리마을공영주차장,노외,충청북도 영동군 학산면 박계길 29,36.107221200000005,127.67348159999999,충청북도 영동군청,043-740-3511,,"22,00:00~24:00","23,00:00~24:00","24,00:00~24:00","25,00:00~24:00","26,00:00~24:00"
110,충청북도,덕진리마을공영주차장,노외,충청북도 영동군 용산면 덕진길 150,36.2735027,127.8415112,충청북도 영동군청,043-740-3511,,"22,00:00~24:00","23,00:00~24:00","24,00:00~24:00","25,00:00~24:00","26,00:00~24:00"
111,충청북도,노근리마을공영주차장,노외,충청북도 영동군 황간면 목화실길 34,36.2100653,127.8818945,충청북도 영동군청,043-740-3511,,"22,00:00~24:00","23,00:00~24:00","24,00:00~24:00","25,00:00~24:00","26,00:00~24:00"
112,충청북도,상지마을공영주차장,노외,충청북도 영동군 학산면 모산길 115,36.1127849,127.6601904,충청북도 영동군청,043-740-3511,,"22,00:00~24:00","23,00:00~24:00","24,00:00~24:00","25,00:00~24:00","26,00:00~24:00"
113,충청북도,장동마을공영주차장,노외,충청북도 영동군 심천면 장동리 199,36.224537899999994,127.6833439,충청북도 영동군청,043-740-3511,,"22,00:00~24:00","23,00:00~24:00","24,00:00~24:00","25,00:00~24:00","26,00:00~24:00"
114,충청북도,유곡마을공영주차장,노외,충청북도 영동군 상촌면 유곡길 36,36.140427700000004,127.9137982,충청북도 영동군청,043-740-3511,,"22,00:00~24:00","23,00:00~24:00","24,00:00~24:00","25,00:00~24:00","26,00:00~24:00"
115,충청북도,죽전마을공영주차장,노외,충청북도 영동군 추풍령면 죽전길 107,36.2239844,128.0254994,충청북도 영동군청,043-740-3511,,"22,00:00~24:00","23,00:00~24:00","24,00:00~24:00","25,00:00~24:00","26,00:00~24:00"
116,충청북도,당곡리마을공영주차장,노외,충청북도 영동군 영동읍 당곡로1길 16,36.147707000000004,127.8231365,충청북도 영동군청,043-740-3511,,"22,00:00~24:00","23,00:00~24:00","24,00:00~24:00","25,00:00~24:00","26,00:00~24:00"
117,충청북도,지내마을공영주차장,노외,충청북도 영동군 학산면 넘벌2길 2,36.1006193,127.64620490000001,충청북도 영동군청,043-740-3511,,"22,00:00~24:00","23,00:00~24:00","24,00:00~24:00","25,00:00~24:00","26,00:00~24:00"
118,충청북도,신안마을공영주차장,노외,충청북도 영동군 추풍령면 하신안1길 11,36.265351,127.995368,충청북도 영동군청,043-740-3511,,"22,00:00~24:00","23,00:00~24:00","24,00:00~24:00","25,00:00~24:00","26,00:00~24:00"
119,충청북도,매금리마을공영주차장,노외,충청북도 영동군 용산면 매금길 52,36.2819157,127.82698640000001,충청북도 영동군청,043-740-3511,,"22,00:00~24:00","23,00:00~24:00","24,00:00~24:00","25,00:00~24:00","26,00:00~24:00"
120,충청북도,호탄리마을공영주차장,노외,충청북도 영동군 양산면 호탄길 29,36.1336895,127.63689129999999,충청북도 영동군청,043-740-3511,,"22,00:00~24:00","23,00:00~24:00","24,00:00~24:00","25,00:00~24:00","26,00:00~24:00"
121,충청북도,아암리마을공영주차장,노외,충청북도 영동군 학산면 공암철동길 28-7,36.08167359999999,127.68167930000001,충청북도 영동군청,043-740-3511,,"22,00:00~24:00","23,00:00~24:00","24,00:00~24:00","25,00:00~24:00","26,00:00~24:00"
122,충청북도,하가리마을공영주차장,노외,충청북도 영동군 영동읍 하가길 66,36.1767212,127.8445456,충청북도 영동군청,043-740-3511,,"22,00:00~24:00","23,00:00~24:00","24,00:00~24:00","25,00:00~24:00","26,00:00~24:00"
123,충청북도,명천리마을공영주차장,노외,충청북도 영동군 심천면 명천길 28-2,36.175243200000004,127.70624340000002,충청북도 영동군청,043-740-3511,,"22,00:00~24:00","23,00:00~24:00","24,00:00~24:00","25,00:00~24:00","26,00:00~24:00"
124,충청북도,오정리마을공영주차장,노외,충청북도 영동군 영동읍 오정1길 3,36.1943565,127.76630359999999,충청북도 영동군청,043-740-3511,,"22,00:00~24:00","23,00:00~24:00","24,00:00~24:00","25,00:00~24:00","26,00:00~24:00"
125,충청북도,유곡2리마을공영주차장,노외,충청북도 영동군 상촌면 하유곡1길 70,36.1165136,127.9201872,충청북도 영동군청,043-740-3511,,"22,00:00~24:00","23,00:00~24:00","24,00:00~24:00","25,00:00~24:00","26,00:00~24:00"
126,충청북도,추풍령마을공영주차장,노외,충청북도 영동군 추풍령면 추풍령로 489,36.2119866,128.0011311,충청북도 영동군청,043-740-3511,,"22,00:00~24:00","23,00:00~24:00","24,00:00~24:00","25,00:00~24:00","26,00:00~24:00"
127,충청북도,심천리마을공영주차장,노외,충청북도 영동군 심천면 심천로5길 3-1,36.2375566,127.72090390000001,충청북도 영동군청,043-740-3511,,"22,00:00~24:00","23,00:00~24:00","24,00:00~24:00","25,00:00~24:00","26,00:00~24:00"
128,충청북도,서송원마을공영주차장,노외,충청북도 영동군 황간면 서송원길 144,36.1918468,127.8783004,충청북도 영동군청,043-740-3511,,"22,00:00~24:00","23,00:00~24:00","24,00:00~24:00","25,00:00~24:00","26,00:00~24:00"
129,충청북도,영동전통시장제1주차장,노외,충청북도 영동군 영동읍 영산로 1길 13-1,36.17514439999999,127.77600090000001,충청북도 영동군청,043-740-3511,,"22,00:00~24:00","23,00:00~24:00","24,00:00~24:00","25,00:00~24:00","26,00:00~24:00"
130,충청북도,용화면공영주차장,노외,충청북도 영동군 용화면 용화1길 30,36.020689600000004,127.76666429999999,충청북도 영동군청,043-740-3511,,"22,00:00~24:00","23,00:00~24:00","24,00:00~24:00","25,00:00~24:00","26,00:00~24:00"
131,충청북도,유전리마을공영주차장,노외,충청북도 영동군 매곡면 유전리 184-1,36.1715971,127.94265349999999,충청북도 영동군청,043-740-3511,,"22,00:00~24:00","23,00:00~24:00","24,00:00~24:00","25,00:00~24:00","26,00:00~24:00"
132,충청북도,영동전통시장제2주차장,노외,충청북도 영동군 영동읍 영동시장1길 38,36.177458200000004,127.7746514,충청북도 영동군청,043-740-3511,,"22,00:00~24:00","23,00:00~24:00","24,00:00~24:00","25,00:00~24:00","26,00:00~24:00"
133,충청북도,영산동공영주차장,노외,충청북도 영동군 영동읍 영산로 28,36.177399900000005,127.77624569999999,충청북도 영동군청,043-740-3511,,"22,00:00~24:00","23,00:00~24:00","24,00:00~24:00","25,00:00~24:00","26,00:00~24:00"
134,충청북도,계산동공영주차장,노외,충청북도 영동군 영동읍 중앙로3길 2-4,36.174312,127.77772399999999,충청북도 영동군청,043-740-3511,,"22,00:00~24:00","23,00:00~24:00","24,00:00~24:00","25,00:00~24:00","26,00:00~24:00"
135,충청북도,학산공영주차장,노외,충청북도 영동군 학산면 서산로 56,36.09807120000001,127.6838632,충청북도 영동군청,043-740-3511,,"22,00:00~24:00","23,00:00~24:00","24,00:00~24:00","25,00:00~24:00","26,00:00~24:00"
136,충청북도,동정리마을주차장,노외,충청북도 영동군 영동읍 동정로 72-23,36.1727481,127.78901699999999,충청북도 영동군청,043-740-3511,,"22,00:00~24:00","23,00:00~24:00","24,00:00~24:00","25,00:00~24:00","26,00:00~24:00"
137,충청북도,영산2리중소규모주차장,노외,충청북도 영동군 영동읍 영산로 75-1,36.1806566,127.77263,충청북도 영동군청,043-740-3511,,"22,00:00~24:00","23,00:00~24:00","24,00:00~24:00","25,00:00~24:00","26,00:00~24:00"
138,충청북도,공수2리마을공영주차장,노외,충청북도 영동군 매곡면 공수1길 18,36.1620144,127.97232890000001,충청북도 영동군청,043-740-3511,,"22,00:00~24:00","23,00:00~24:00","24,00:00~24:00","25,00:00~24:00","26,00:00~24:00"
139,충청북도,부용1리중소규모주차장,노외,충청북도 영동군 영동읍 부용4길 18-12,36.1734486,127.7710001,충청북도 영동군청,043-740-3511,,"22,00:00~24:00","23,00:00~24:00","24,00:00~24:00","25,00:00~24:00","26,00:00~24:00"
140,충청북도,영동역유휴부지주차장,노외,충청북도 영동군 영동읍 계산로 87,36.1720597,127.7860898,충청북도 영동군청,043-740-3511,,"22,00:00~24:00","23,00:00~24:00","24,00:00~24:00","25,00:00~24:00","26,00:00~24:00"
141,충청북도,양가동공영주차장,노외,충청북도 영동군 영동읍 영동천길23-4,36.1720597,127.7860898,충청북도 영동군청,043-740-3511,,"22,00:00~24:00","23,00:00~24:00","24,00:00~24:00","25,00:00~24:00","26,00:00~24:00"
142,충청북도,산림조합공영주차장,노외,충청북도 영동군 영동읍 학산영동로,36.1671586,127.7639885,충청북도 영동군청,043-740-3511,,"22,00:00~24:00","23,00:00~24:00","24,00:00~24:00","25,00:00~24:00","26,00:00~24:00"
143,충청북도,물한계곡주차장,노외,충청북도 영동군 상촌면 물한계곡로 1134,36.0592057,127.8745639,충청북도 영동군청,043-740-3511,,"22,00:00~24:00","23,00:00~24:00","24,00:00~24:00","25,00:00~24:00","26,00:00~24:00"
144,충청북도,묘동소규모주차장,노외,충청북도 영동군 양강면 묘동리 274-2,36.143004499999996,127.7465723,충청북도 영동군청,043-740-3511,,"22,00:00~24:00","23,00:00~24:00","24,00:00~24:00","25,00:00~24:00","26,00:00~24:00"
145,충청북도,갈기산주차장,노외,충청북도 영동군 학산면 갈기산로 581,36.1170307,127.64068259999999,충청북도 영동군청,043-740-3511,,"22,00:00~24:00","23,00:00~24:00","24,00:00~24:00","25,00:00~24:00","26,00:00~24:00"
146,충청북도,서산리중소규모주차장,노외,충청북도 영동군 학산면 서산로 38-10,36.096897799999994,127.6849118,충청북도 영동군청,043-740-3511,,"22,00:00~24:00","23,00:00~24:00","24,00:00~24:00","25,00:00~24:00","26,00:00~24:00"
147,충청북도,송호주차장,노외,충청북도 영동군 양산면 송호리 299-1,36.13049470000001,127.674304,충청북도 영동군청,043-740-3511,,"22,00:00~24:00","23,00:00~24:00","24,00:00~24:00","25,00:00~24:00","26,00:00~24:00"
148,충청북도,증평유료주차장,노상,충청북도 증평군 증평읍 중동리 136 ,36.7838785,127.5811014,충청북도 증평군청,043-835-3942,종일무료개방,"22,00:00~24:00","23,00:00~24:00","24,00:00~24:00","25,00:00~24:00","26,00:00~24:00"
149,충청북도,교동유료주차장,노외,충청북도 증평군 증평읍 교동리 108,36.7846243,127.58459520000001,충청북도 증평군청,043-835-3942,종일무료개방,"22,00:00~24:00","23,00:00~24:00","24,00:00~24:00","25,00:00~24:00","26,00:00~24:00"
150,충청북도,초중주차장,노외,충청북도 증평군 증평읍 초중리 582-1,36.78015,127.57340159999998,충청북도 증평군청,043-835-3942,종일무료개방,"22,00:00~24:00","23,00:00~24:00","24,00:00~24:00","25,00:00~24:00","26,00:00~24:00"
151,충청북도,초중주차장,노외,충청북도 증평군 증평읍 초중리 562-4,36.7806758,127.5735365,충청북도 증평군청,043-835-3942,종일무료개방,"22,00:00~24:00","23,00:00~24:00","24,00:00~24:00","25,00:00~24:00","26,00:00~24:00"
152,충청북도,초중주차장,노외,충청북도 증평군 증평읍 초중리 578-1,36.7795109,127.5716025,충청북도 증평군청,043-835-3942,종일무료개방,"22,00:00~24:00","23,00:00~24:00","24,00:00~24:00","25,00:00~24:00","26,00:00~24:00"
153,충청북도,단군전 주차장,노외,충청북도 증평군 증평읍 증평리 79,36.7814287,127.5830507,충청북도 증평군청,043-835-3942,종일무료개방,"22,00:00~24:00","23,00:00~24:00","24,00:00~24:00","25,00:00~24:00","26,00:00~24:00"
154,충청북도,증평문화원 주차장,노외,충청북도 증평군 증평읍 장동리 788,36.78620170000001,127.58988729999999,충청북도 증평군청,043-835-3942,종일무료개방,"22,00:00~24:00","23,00:00~24:00","24,00:00~24:00","25,00:00~24:00","26,00:00~24:00"
155,충청북도,미암리 1070 주차장,노외,충청북도 증평군 증평읍 미암리 1070,36.8069953,127.58854879999998,충청북도 증평군청,043-835-3942,종일무료개방,"22,00:00~24:00","23,00:00~24:00","24,00:00~24:00","25,00:00~24:00","26,00:00~24:00"
156,충청북도,미암리 1053 주차장,노외,충청북도 증평군 증평읍 미암리 1053,36.804907899999996,127.5918138,충청북도 증평군청,043-835-3942,종일무료개방,"22,00:00~24:00","23,00:00~24:00","24,00:00~24:00","25,00:00~24:00","26,00:00~24:00"
157,충청북도,인삼판매장 주차장,노외,충청북도 증평군 증평읍 송산리 96-1,36.795296,127.58198610000001,충청북도 증평군청,043-835-3942,종일무료개방,"22,00:00~24:00","23,00:00~24:00","24,00:00~24:00","25,00:00~24:00","26,00:00~24:00"
158,충청북도,신동리 242주차장,노외,충청북도 증평군 증평읍 신동리 242~244,36.781335,127.58074779999998,충청북도 증평군청,043-835-3942,종일무료개방,"22,00:00~24:00","23,00:00~24:00","24,00:00~24:00","25,00:00~24:00","26,00:00~24:00"
159,충청북도,신동리 13-2 주차장,노외,충청북도 증평군 증평읍 신동리 13-2,36.7828842,127.58049960000001,충청북도 증평군청,043-835-3942,종일무료개방,"22,00:00~24:00","23,00:00~24:00","24,00:00~24:00","25,00:00~24:00","26,00:00~24:00"
160,충청북도,신동리 9 주차장,노외,충청북도 증평군 증평읍 신동리 9,36.7830761,127.5804817,충청북도 증평군청,043-835-3942,종일무료개방,"22,00:00~24:00","23,00:00~24:00","24,00:00~24:00","25,00:00~24:00","26,00:00~24:00"
161,충청북도,새한주차장,노외,충청북도 증평군 증평읍 창동리 18,36.7868928,127.58310060000001,충청북도 증평군청,043-835-3942,종일무료개방,"22,00:00~24:00","23,00:00~24:00","24,00:00~24:00","25,00:00~24:00","26,00:00~24:00"
162,충청북도,증평읍 하상주차장,노외,충청북도 증평군 증평읍 창동리 809,36.78581679999999,127.57698909999998,충청북도 증평군청,043-835-3942,종일무료개방,"22,00:00~24:00","23,00:00~24:00","24,00:00~24:00","25,00:00~24:00","26,00:00~24:00"
163,충청북도,지구대옆주차장,노외,충청북도 증평군 증평읍 교동리 65,36.785913799999996,127.5837972,충청북도 증평군청,043-835-3942,종일무료개방,"22,00:00~24:00","23,00:00~24:00","24,00:00~24:00","25,00:00~24:00","26,00:00~24:00"
164,충청북도,증평한의원뒤주차장,노외,충청북도 증평군 증평읍 신동시 105~106,36.7816413,127.57943190000002,충청북도 증평군청,043-835-3942,종일무료개방,"22,00:00~24:00","23,00:00~24:00","24,00:00~24:00","25,00:00~24:00","26,00:00~24:00"
165,충청북도,진천읍 교성주차장,노상,충청북도 진천군 진천읍 교성리 140,36.8498591,127.440629,충청북도 진천군,043-539-3725,,"22,00:00~24:00","23,00:00~24:00","24,00:00~24:00","25,00:00~24:00","26,00:00~24:00"
166,충청북도,광혜원면 광혜원파출소 앞,노상,충청북도 진천군 광혜원면 광혜원리 443-7,36.9898349,127.4437925,충청북도 진천군,043-539-3725,,"22,00:00~24:00","23,00:00~24:00","24,00:00~24:00","25,00:00~24:00","26,00:00~24:00"
167,충청북도,광혜원면 광혜원리 농협 앞,노상,충청북도 진천군 광혜원면 광혜원리 440-2,36.989544099999996,127.44422490000001,충청북도 진천군,043-539-3725,,"22,00:00~24:00","23,00:00~24:00","24,00:00~24:00","25,00:00~24:00","26,00:00~24:00"
168,충청북도,진천읍 읍내리 #자 도로,노상,충청북도 진천군 진천읍 읍내리 372-4,36.8553662,127.4419973,충청북도 진천군,043-539-3725,,"22,00:00~24:00","23,00:00~24:00","24,00:00~24:00","25,00:00~24:00","26,00:00~24:00"
169,충청북도,진천읍 읍내리 백곡천둔치,노외,충청북도 진천군 진천읍 읍내리 191,36.8600821,127.44315970000001,충청북도 진천군,043-539-3725,,"22,00:00~24:00","23,00:00~24:00","24,00:00~24:00","25,00:00~24:00","26,00:00~24:00"
170,충청북도,진천읍 읍내리 영마트 앞,노외,충청북도 진천군 진천읍 읍내리 615-3,36.8542269,127.4403998,충청북도 진천군,043-539-3725,,"22,00:00~24:00","23,00:00~24:00","24,00:00~24:00","25,00:00~24:00","26,00:00~24:00"
171,충청북도,노외주차장3(이월면 장양천 둔치),노외,충청북도 진천군 이월면 송림리 615-3,36.9327289,127.4295563,충청북도 진천군,043-539-3725,,"22,00:00~24:00","23,00:00~24:00","24,00:00~24:00","25,00:00~24:00","26,00:00~24:00"
172,충청북도,노외주차장5(광혜원면 칠장천 둔치),노외,충청북도 진천군 광혜원면 광혜원리 238-1,36.9904862,127.44663,충청북도 진천군,043-539-3725,,"22,00:00~24:00","23,00:00~24:00","24,00:00~24:00","25,00:00~24:00","26,00:00~24:00"
173,충청북도,괴산군청,부설,충북 괴산군 괴산읍 임꺽정로 90,36.815460200000004,127.78684740000001,충청북도 괴산군,043-830-3569,무료,"22,00:00~24:00","23,00:00~24:00","24,00:00~24:00","25,00:00~24:00","26,00:00~24:00"
174,충청북도,괴산읍사무소,부설,충북 괴산군 괴산읍 읍내로13길 50,36.8117651,127.79074340000001,충청북도 괴산군,043-830-3569,무료,"22,00:00~24:00","23,00:00~24:00","24,00:00~24:00","25,00:00~24:00","26,00:00~24:00"
175,충청북도,장연면사무소,부설,충북 괴산군 장연면 미선로오가5길 7,36.824133,127.95545159999999,충청북도 괴산군,043-830-3569,무료,"22,00:00~24:00","23,00:00~24:00","24,00:00~24:00","25,00:00~24:00","26,00:00~24:00"
176,충청북도,칠성면사무소,부설,충북 괴산군 칠성면 도정로2길 8-1,36.788199799999994,127.8639344,충청북도 괴산군,043-830-3569,무료,"22,00:00~24:00","23,00:00~24:00","24,00:00~24:00","25,00:00~24:00","26,00:00~24:00"
177,충청북도,청천면사무소,부설,충북 괴산군 청천면 괴산로 1342-1,36.659638,127.75832859999998,충청북도 괴산군,043-830-3569,무료,"22,00:00~24:00","23,00:00~24:00","24,00:00~24:00","25,00:00~24:00","26,00:00~24:00"
178,충청북도,청안면사무소,부설,충북 괴산군 청안면 청안읍내로2길 7,36.7719849,127.63981880000001,충청북도 괴산군,043-830-3569,무료,"22,00:00~24:00","23,00:00~24:00","24,00:00~24:00","25,00:00~24:00","26,00:00~24:00"
179,충청북도,불정면사무소,부설,충북 괴산군 불정면 목도로2길 11,36.87063,127.85265729999999,충청북도 괴산군,043-830-3569,무료,"22,00:00~24:00","23,00:00~24:00","24,00:00~24:00","25,00:00~24:00","26,00:00~24:00"
180,충청북도,감물면사무소,부설,충북 괴산군 감물면 충민로신대길 13,36.8366861,127.8751733,충청북도 괴산군,043-830-3569,무료,"22,00:00~24:00","23,00:00~24:00","24,00:00~24:00","25,00:00~24:00","26,00:00~24:00"
181,충청북도,연풍면사무소,부설,충북 괴산군 연풍면 향교로 69,36.7665146,128.0007203,충청북도 괴산군,043-830-3569,무료,"22,00:00~24:00","23,00:00~24:00","24,00:00~24:00","25,00:00~24:00","26,00:00~24:00"
182,충청북도,문광면사무소,부설,충북 괴산군 문광면 광덕길 27,36.7901448,127.7852783,충청북도 괴산군,043-830-3569,무료,"22,00:00~24:00","23,00:00~24:00","24,00:00~24:00","25,00:00~24:00","26,00:00~24:00"
183,충청북도,사리면사무소,부설,충북 괴산군 사리면 사리로 242,36.8167473,127.64868700000001,충청북도 괴산군,043-830-3569,무료,"22,00:00~24:00","23,00:00~24:00","24,00:00~24:00","25,00:00~24:00","26,00:00~24:00"
184,충청북도,소수면사무소,부설,충북 괴산군 소수면 소수로 151,36.8558284,127.7450328,충청북도 괴산군,043-830-3569,무료,"22,00:00~24:00","23,00:00~24:00","24,00:00~24:00","25,00:00~24:00","26,00:00~24:00"
185,충청북도,괴산재래시장주차장,노외,충북 괴산군 괴산읍 읍내로15길 8-8,36.8111614,127.79497260000001,충청북도 괴산군,043-830-3569,무료,"22,00:00~24:00","23,00:00~24:00","24,00:00~24:00","25,00:00~24:00","26,00:00~24:00"
186,충청북도,공영주차장(우체국앞),노외,충청북도 괴산군 괴산읍 동부리 673-8,36.8087324,127.792212,충청북도 괴산군,043-830-3569,무료,"22,00:00~24:00","23,00:00~24:00","24,00:00~24:00","25,00:00~24:00","26,00:00~24:00"
187,충청북도,공영주차장(신협앞),노외,충북 괴산군 괴산읍 읍내로12길 15,36.809992,127.793605,충청북도 괴산군,043-830-3569,무료,"22,00:00~24:00","23,00:00~24:00","24,00:00~24:00","25,00:00~24:00","26,00:00~24:00"
188,충청북도,괴산문화예술회관,노외/부설,충북 괴산군 괴산읍 읍내로 262,36.8068967,127.79377579999999,충청북도 괴산군,043-830-3569,무료,"22,00:00~24:00","23,00:00~24:00","24,00:00~24:00","25,00:00~24:00","26,00:00~24:00"
189,충청북도,시장주차장,노외,충청북도 괴산군 괴산읍 동부리 512-5,36.8114992,127.7949067,충청북도 괴산군,043-830-3569,무료,"22,00:00~24:00","23,00:00~24:00","24,00:00~24:00","25,00:00~24:00","26,00:00~24:00"
190,충청북도,외쌍하상주차장,노외,충청북도 괴산군 칠성면 비도리 662-1,36.7839781,127.8885992,충청북도 괴산군,043-830-3569,무료,"22,00:00~24:00","23,00:00~24:00","24,00:00~24:00","25,00:00~24:00","26,00:00~24:00"
191,충청북도,칠성생활체육공원주차장,노외,충청북도 괴산군 칠성면 도정리 246-2,36.7887752,127.8635815,충청북도 괴산군,043-830-3569,무료,"22,00:00~24:00","23,00:00~24:00","24,00:00~24:00","25,00:00~24:00","26,00:00~24:00"
192,충청북도,청천재래시장 주차장,노외,충북 괴산군 청천면 괴산로 1333-1,36.657824600000005,127.75727009999999,충청북도 괴산군,043-830-3569,무료,"22,00:00~24:00","23,00:00~24:00","24,00:00~24:00","25,00:00~24:00","26,00:00~24:00"
193,충청북도,환경문화 전시관,노외,충북 괴산군 청천면 괴산로 1248,36.659638,127.75832859999998,충청북도 괴산군,043-830-3569,무료,"22,00:00~24:00","23,00:00~24:00","24,00:00~24:00","25,00:00~24:00","26,00:00~24:00"
194,충청북도,지촌하상주차장,노외,충청북도 괴산군 청천면 지촌리 72,36.717436299999996,127.7997186,충청북도 괴산군,043-830-3569,무료,"22,00:00~24:00","23,00:00~24:00","24,00:00~24:00","25,00:00~24:00","26,00:00~24:00"
195,충청북도,하상주차장,노외,충청북도 괴산군 사리면 사담리 870-71,36.8142925,127.650849,충청북도 괴산군,043-830-3569,무료,"22,00:00~24:00","23,00:00~24:00","24,00:00~24:00","25,00:00~24:00","26,00:00~24:00"
196,충청북도,연풍레포츠공원,노외,충청북도 괴산군 연풍면 원풍리 168,36.8141271,128.0265871,충청북도 괴산군,043-830-3569,무료,"22,00:00~24:00","23,00:00~24:00","24,00:00~24:00","25,00:00~24:00","26,00:00~24:00"
197,충청북도,광전리 하상주차장,노외,충청북도 괴산군 감물면 오성리 788-83,36.8375031,127.87149450000001,충청북도 괴산군,043-830-3569,무료,"22,00:00~24:00","23,00:00~24:00","24,00:00~24:00","25,00:00~24:00","26,00:00~24:00"
198,충청북도,(구)전원식당 주차장,노외,충북 괴산군 괴산읍 동부리 621-3,36.810302899999996,127.79305169999999,충청북도 괴산군,043-830-3569,"신규, 무료","22,00:00~24:00","23,00:00~24:00","24,00:00~24:00","25,00:00~24:00","26,00:00~24:00"
199,충청북도,충청북도 음성군청,노외,충청북도 음성군 음성읍 중앙로 173,36.9400496,127.69053020000001,충청북도 음성군청,043-871-3552,종일무료개방,"22,00:00~24:00","23,00:00~24:00","24,00:00~24:00","25,00:00~24:00","26,00:00~24:00"
200,충청북도,음성읍 공영주차장,노외,충청북도 음성군 음성군 음성읍 읍내리 817-229,36.9364961,127.6907814,충청북도 음성군청,043-871-3886,종일무료개방,"22,00:00~24:00","23,00:00~24:00","24,00:00~24:00","25,00:00~24:00","26,00:00~24:00"
201,충청북도,음성읍 공영주차장,노외,충청북도 음성군 음성군 음성읍 읍내리 613-7,36.937566600000004,127.68972190000001,충청북도 음성군청,043-871-3886,종일무료개방,"22,00:00~24:00","23,00:00~24:00","24,00:00~24:00","25,00:00~24:00","26,00:00~24:00"
202,충청북도,음성읍 공영주차장,노상,충청북도 음성군 음성군 음성읍 읍내리 649-3,36.9408336,127.6884669,충청북도 음성군청,043-871-3886,종일무료개방,"22,00:00~24:00","23,00:00~24:00","24,00:00~24:00","25,00:00~24:00","26,00:00~24:00"
203,충청북도,음성읍 공영주차장,노상,충청북도 음성군 음성군 음성읍 읍내리 245-1,36.9383706,127.6918729,충청북도 음성군청,043-871-3886,종일무료개방,"22,00:00~24:00","23,00:00~24:00","24,00:00~24:00","25,00:00~24:00","26,00:00~24:00"
204,충청북도,금왕읍 공영주차장,노외,충청북도 음성군 음성군 금왕읍 무극리 78-50,36.9912955,127.59699199999999,충청북도 음성군청,043-871-3886,종일무료개방,"22,00:00~24:00","23,00:00~24:00","24,00:00~24:00","25,00:00~24:00","26,00:00~24:00"
205,충청북도,금왕읍 공영주차장,노외,충청북도 음성군 음성군 금왕읍 무극리 594-1,36.9977735,127.59579950000001,충청북도 음성군청,043-871-3886,종일무료개방,"22,00:00~24:00","23,00:00~24:00","24,00:00~24:00","25,00:00~24:00","26,00:00~24:00"
206,충청북도,대소면 공영주차장,노외,충청북도 음성군 음성군 대소면 오산리 100-2,36.96954059999999,127.4825642,충청북도 음성군청,043-871-3886,종일무료개방,"22,00:00~24:00","23,00:00~24:00","24,00:00~24:00","25,00:00~24:00","26,00:00~24:00"
207,충청북도,대소면 공영주차장,노외,충청북도 음성군 음성군 대소면 오산리 121-6 ,36.9681365,127.4856587,충청북도 음성군청,043-871-3886,종일무료개방,"22,00:00~24:00","23,00:00~24:00","24,00:00~24:00","25,00:00~24:00","26,00:00~24:00"
208,충청북도,삼성면 공영주차장,노외,충청북도 음성군 음성군 삼성면 덕정리 520-5,37.0196424,127.499518,충청북도 음성군청,043-871-3886,종일무료개방,"22,00:00~24:00","23,00:00~24:00","24,00:00~24:00","25,00:00~24:00","26,00:00~24:00"
209,충청북도,삼성면 공영주차장,노외,충청북도 음성군 음성군 삼성면 덕정리 515-3,37.02008500000001,127.49847779999999,충청북도 음성군청,043-871-3886,종일무료개방,"22,00:00~24:00","23,00:00~24:00","24,00:00~24:00","25,00:00~24:00","26,00:00~24:00"
210,충청북도,삼성면 공영주차장,노외,충청북도 음성군 음성군 삼성면 덕정리 542-2,37.0189771,127.500091,충청북도 음성군청,043-871-3886,종일무료개방,"22,00:00~24:00","23,00:00~24:00","24,00:00~24:00","25,00:00~24:00","26,00:00~24:00"
211,충청북도,생극면 공영주차장,노외,충청북도 음성군 음성군 생극면 신양리 436-12,37.0322333,127.6051092,충청북도 음성군청,043-871-3886,종일무료개방,"22,00:00~24:00","23,00:00~24:00","24,00:00~24:00","25,00:00~24:00","26,00:00~24:00"
212,충청북도,감곡면 공영주차장,노외,충청북도 음성군 음성군 감곡면 왕장리 529-1,37.117655,127.6368703,충청북도 음성군청,043-871-3886,종일무료개방,"22,00:00~24:00","23,00:00~24:00","24,00:00~24:00","25,00:00~24:00","26,00:00~24:00"
213,충청북도,감곡면 공영주차장,노외,충청북도 음성군 음성군 감곡면 왕장리 526-17,37.1177125,127.6397439,충청북도 음성군청,043-871-3886,종일무료개방,"22,00:00~24:00","23,00:00~24:00","24,00:00~24:00","25,00:00~24:00","26,00:00~24:00"
214,충청북도,충청북도 단양군청,노외,충청북도 단양군 단양읍 중앙1로 10,36.9848383,128.3655699,충청북도 단양군청,043-420-3333,24시간 무료 개방,"22,00:00~24:00","23,00:00~24:00","24,00:00~24:00","25,00:00~24:00","26,00:00~24:00"
215,충청북도,하상주차장,노외,충청북도 단양군 단양읍 도전리 651번지,36.979150700000005,128.36976040000002,충청북도 단양군청,043-420-2498,24시간 무료 개방,"22,00:00~24:00","23,00:00~24:00","24,00:00~24:00","25,00:00~24:00","26,00:00~24:00"
216,충청북도,단양구경시장 시장주차장,노상,충청북도 단양군 단양읍 도전리 636,36.982641799999996,128.3711949,충청북도 단양군청,043-420-2402,24시간 무료 개방,"22,00:00~24:00","23,00:00~24:00","24,00:00~24:00","25,00:00~24:00","26,00:00~24:00"
217,충청북도,단양읍사무소,노외,충청북도 단양군 단양읍 중앙1로 35,36.98664779999999,128.368178,단양읍사무소,043-420-3501,24시간 무료 개방,"22,00:00~24:00","23,00:00~24:00","24,00:00~24:00","25,00:00~24:00","26,00:00~24:00"
218,충청북도,매포읍사무소,노외,충청북도 단양군 매포읍 평동 14길 12,37.03237670000001,128.3032551,매포읍사무소,043-420-3601,24시간 무료 개방,"22,00:00~24:00","23,00:00~24:00","24,00:00~24:00","25,00:00~24:00","26,00:00~24:00"
219,충청북도,단성면사무소,노외,충청북도 단양군 단성면 충혼로 16,36.935664,128.32486550000002,단성면사무소,043-420-3701,24시간 무료 개방,"22,00:00~24:00","23,00:00~24:00","24,00:00~24:00","25,00:00~24:00","26,00:00~24:00"
220,충청북도,대강면사무소,노외,충청북도 단양군 대강면 대강로 74,36.9223859,128.35216640000002,대강면사무소,043-420-3751,24시간 무료 개방,"22,00:00~24:00","23,00:00~24:00","24,00:00~24:00","25,00:00~24:00","26,00:00~24:00"
221,충청북도,가곡면사무소,노외,충청북도 단양군 가곡면 남한강로 550,37.02833710000001,128.3857442,가곡면사무소,043-420-3801,24시간 무료 개방,"22,00:00~24:00","23,00:00~24:00","24,00:00~24:00","25,00:00~24:00","26,00:00~24:00"
222,충청북도,영춘면사무소,노외,충청북도 단양군 영춘면 온달평강3로 9,37.078543100000005,128.4876741,영춘면사무소,043-420-3851,24시간 무료 개방,"22,00:00~24:00","23,00:00~24:00","24,00:00~24:00","25,00:00~24:00","26,00:00~24:00"
223,충청북도,어상천면사무소,노외,충청북도 단양군 어상천면 어상천로 928,37.106407700000005,128.35761609999997,어상천면사무소,043-420-3901,24시간 무료 개방,"22,00:00~24:00","23,00:00~24:00","24,00:00~24:00","25,00:00~24:00","26,00:00~24:00"
224,충청북도,적성면사무소,노외,충청북도 단양군 적성면 금수산로 957,36.9606748,128.2930177,적성면사무소,043-420-3951,24시간 무료 개방,"22,00:00~24:00","23,00:00~24:00","24,00:00~24:00","25,00:00~24:00","26,00:00~24:00"
225,충청북도,별곡주차장,노외,충청북도 단양군 단양읍 별곡리 산9-22,36.9881593,128.3645984,충청북도 단양군청,043-420-3333,24시간 무료 개방,"22,00:00~24:00","23,00:00~24:00","24,00:00~24:00","25,00:00~24:00","26,00:00~24:00"
226,충청북도,고수대교 옆 주차장,노외,충청북도 단양군 단양읍 별곡리 45,36.986300899999996,128.37163619999998,충청북도 단양군청,043-420-3333,24시간 무료 개방,"22,00:00~24:00","23,00:00~24:00","24,00:00~24:00","25,00:00~24:00","26,00:00~24:00"
227,충청북도,만천하스카이워크 주차장,노외,충청북도 단양군 적성면 애곡리 93-3,36.9768065,128.3355814,충청북도 단양군 다누리센터관리사업소,043-420-2981,24시간 무료 개방,"22,00:00~24:00","23,00:00~24:00","24,00:00~24:00","25,00:00~24:00","26,00:00~24:00"
228,충청북도,평동5리 주차장(하나아파트 인근),노외,충청북도 단양군 매포읍 평동리 96-1,37.0272928,128.3062763,매포읍사무소,043-420-3601,24시간 무료 개방,"22,00:00~24:00","23,00:00~24:00","24,00:00~24:00","25,00:00~24:00","26,00:00~24:00"
229,충청남도,계룡시 엄사중앙로 노상주차장,노상,충청남도 계룡시 엄사중앙로,36.28719359999999,127.24138729999999,충청남도 계룡시,042-840-2533,"평일유료, 주말 및 공휴일 무료","22,20:00~24:00","23,00:00~24:00","24,00:00~24:00","25,00:00~24:00","26,00:00~24:00"
230,충청남도,계룡시 번영로 노상주차장,노상,충청남도 계룡시 엄사번영로,36.2835267,127.2308672,충청남도 계룡시,042-840-2533,"평일유료, 주말 및 공휴일 무료","22,20:00~24:00","23,00:00~24:00","24,00:00~24:00","25,00:00~24:00","26,00:00~24:00"
231,충청남도,계룡시 양정공영주차장,노외,충청남도 계룡시 엄사면 엄사리 225-12,36.28292020000001,127.2405877,충청남도 계룡시,042-840-2533,상시무료,"22,00:00~24:00","23,00:00~24:00","24,00:00~24:00","25,00:00~24:00","26,00:00~24:00"
232,충청남도,계룡시 금암 제 1공영주차장,노외,충청남도 계룡시 금암동 480 일원,36.2723396,127.2503142,충청남도 계룡시,042-840-2533,상시무료,"22,00:00~24:00","23,00:00~24:00","24,00:00~24:00","25,00:00~24:00","26,00:00~24:00"
233,충청남도,계룡시 금암 제 2공영주차장,노외,"충청남도 계룡시 금암동 155-1,3",36.2733175,127.25363840000001,충청남도 계룡시,042-840-2533,상시무료,"22,00:00~24:00","23,00:00~24:00","24,00:00~24:00","25,00:00~24:00","26,00:00~24:00"
234,충청남도,계룡시 금암 제 3공영주차장,노외,"충청남도 계룡시 금암동 149-1,3",36.2740151,127.25435970000001,충청남도 계룡시,042-840-2533,상시무료,"22,00:00~24:00","23,00:00~24:00","24,00:00~24:00","25,00:00~24:00","26,00:00~24:00"
235,충청남도,계룡시 금암 제 4공영주차장,노외,충청남도 계룡시 금암동 15-1,36.27525120000001,127.25573700000001,충청남도 계룡시,042-840-2533,상시무료,"22,00:00~24:00","23,00:00~24:00","24,00:00~24:00","25,00:00~24:00","26,00:00~24:00"
236,충청남도,계룡역 공영주차장,노외,충청남도 계룡시 두마면 두계리 134-1,36.272358200000006,127.26272959999999,충청남도 계룡시,042-840-2533,상시무료,"22,00:00~24:00","23,00:00~24:00","24,00:00~24:00","25,00:00~24:00","26,00:00~24:00"
237,충청남도,계룡시 엄사상점가 공영주차장,노외,충청남도 계룡시 엄사면 엄사리 181-1일원,36.289134499999996,127.242902,충청남도 계룡시,042-840-2533,상시무료,"22,00:00~24:00","23,00:00~24:00","24,00:00~24:00","25,00:00~24:00","26,00:00~24:00"
238,충청남도,계룡시 엄사제척지 공영주차장,노외,충청남도 계룡시 엄사면 엄사리 347 일원,36.2872226,127.24253470000001,충청남도 계룡시,042-840-2533,상시무료,"22,00:00~24:00","23,00:00~24:00","24,00:00~24:00","25,00:00~24:00","26,00:00~24:00"
239,충청남도,계룡시 다빈치 안경 옆 임시주차장,노외,충청남도 계룡시 엄사면 엄사리 175,36.290144399999996,127.2434054,충청남도 계룡시,042-840-2533,상시무료,"22,00:00~24:00","23,00:00~24:00","24,00:00~24:00","25,00:00~24:00","26,00:00~24:00"
240,충청남도,계룡시 태백칡냉면 옆 임시주차장,노외,"충청남도 계룡시 엄사면 엄사리 191-1,2,3",36.2871884,127.23604669999999,충청남도 계룡시,042-840-2533,상시무료,"22,00:00~24:00","23,00:00~24:00","24,00:00~24:00","25,00:00~24:00","26,00:00~24:00"
241,충청남도,계룡시 어선횟집 옆 임시주차장,노외,"충청남도 계룡시 엄사면 엄사리 171-1,2",36.2908279,127.24260729999999,충청남도 계룡시,042-840-2533,상시무료,"22,00:00~24:00","23,00:00~24:00","24,00:00~24:00","25,00:00~24:00","26,00:00~24:00"
242,충청남도,계룡시 장안로 노상주차장,노상,충청남도 계룡시 금암동 장안로,36.2723942,127.2493392,충청남도 계룡시,042-840-2533,상시무료,"22,00:00~24:00","23,00:00~24:00","24,00:00~24:00","25,00:00~24:00","26,00:00~24:00"
243,충청남도,계룡시 서금암로 노상주차장,노상,충청남도 계룡시 금암동 서금암로,36.2716331,127.2545332,충청남도 계룡시,042-840-2533,상시무료,"22,00:00~24:00","23,00:00~24:00","24,00:00~24:00","25,00:00~24:00","26,00:00~24:00"
244,충청남도,인삼약초시장 주차장,노외,충청남도 금산군 금산읍 중도리 22-25,36.0990987,127.49649879999998,충청남도 금산군,041-750-2655,,"22,00:00~24:00","23,00:00~24:00","24,00:00~24:00","25,00:00~24:00","26,00:00~24:00"
245,충청남도,(구)수삼센터 주차장,노외,충청남도 금산군 금산읍 중도리 553-21,36.100551700000004,127.49375309999999,충청남도 금산군,041-750-2655,,"22,00:00~24:00","23,00:00~24:00","24,00:00~24:00","25,00:00~24:00","26,00:00~24:00"
246,충청남도,금산흰털바위주차장,노외,충정남도 금산군 금산읍 중도리 92,36.1029847,127.4989996,충청남도 금산군,041-750-2655,,"22,00:00~24:00","23,00:00~24:00","24,00:00~24:00","25,00:00~24:00","26,00:00~24:00"
247,충청남도,향토관광장,노외,충청남도 금산군 금산읍 중도리 203-28,36.1119507,127.49215490000002,충청남도 금산군,041-750-2655,,"22,00:00~24:00","23,00:00~24:00","24,00:00~24:00","25,00:00~24:00","26,00:00~24:00"
248,충청남도,인삼광장 ,노외,충청남도 금산군 금산읍 중도리 18-20,36.099213299999995,127.4978186,충청남도 금산군,041-750-2655,,"22,00:00~24:00","23,00:00~24:00","24,00:00~24:00","25,00:00~24:00","26,00:00~24:00"
249,충청남도,구법원,노외,충청남도 금산군 금산읍 상리 91-12,36.103833,127.4902713,충청남도 금산군,041-750-2655,,"22,18:00~24:00","23,00:00~24:00","24,00:00~24:00","25,00:00~24:00","26,00:00~24:00"
250,충청남도,전통시장,노외,충청남도 금산군 금산읍 하옥리 334-7,36.09919179999999,127.49164170000002,충청남도 금산군,041-750-2655,,"22,00:00~24:00","23,00:00~24:00","24,00:00~24:00","25,00:00~24:00","26,00:00~24:00"
251,충청남도,금산공영주차장,노외,충청남도 금산군 금산읍 상리 362-36,36.105991700000004,127.48903229999999,충청남도 금산군,041-750-2677,,"22,18:00~24:00","23,00:00~24:00","24,00:00~24:00","25,00:00~24:00","26,00:00~24:00"
252,충청남도,(구)고려병원노상주차장,노상,충청남도 논산시 해월로125번길 19-2 ,36.204274700000006,127.0821767,충청남도 논산시,041-746-6303,,"22,00:00~24:00","23,00:00~24:00","24,00:00~24:00","25,00:00~24:00","26,00:00~24:00"
253,충청남도,강경노외임시무료주차장,노외,충청남도 논산시 대흥로11번길 6,36.1548284,127.01412820000002,충청남도 논산시,041-746-6303,,"22,00:00~24:00","23,00:00~24:00","24,00:00~24:00","25,00:00~24:00","26,00:00~24:00"
254,충청남도,강산1 노상주차장,노상,충청남도 논산시 강산동 673,36.193955700000004,127.0884669,충청남도 논산시,041-746-6303,,"22,00:00~24:00","23,00:00~24:00","24,00:00~24:00","25,00:00~24:00","26,00:00~24:00"
255,충청남도,금강유원지주차장,노외,충청남도 논산시 금백로 75,36.159591600000006,127.0113067,충청남도 논산시,041-746-6303,,"22,00:00~24:00","23,00:00~24:00","24,00:00~24:00","25,00:00~24:00","26,00:00~24:00"
256,충청남도,금곡노외주차장,노외,충청남도 논산시 연무읍 득안대로 491 ,36.1145065,127.09797990000001,충청남도 논산시,041-746-6303,,"22,00:00~24:00","23,00:00~24:00","24,00:00~24:00","25,00:00~24:00","26,00:00~24:00"
257,충청남도,내동노외1주차장,노외,충청남도 논산시 시민로 210번길 20,36.185573100000006,127.09928359999999,충청남도 논산시,041-746-6303,,"22,00:00~24:00","23,00:00~24:00","24,00:00~24:00","25,00:00~24:00","26,00:00~24:00"
258,충청남도,연산노상3주차장,노상,충청남도 논산시 선비로275번길17,36.2135851,127.20004579999998,충청남도 논산시,041-746-6303,,"22,00:00~24:00","23,00:00~24:00","24,00:00~24:00","25,00:00~24:00","26,00:00~24:00"
259,충청남도,노성노외주차장,노외,충청남도 논산시 노성산성길,36.2853185,127.1282758,충청남도 논산시,041-746-6303,,"22,00:00~24:00","23,00:00~24:00","24,00:00~24:00","25,00:00~24:00","26,00:00~24:00"
260,충청남도,대교하상주차장,노외,충청남도 논산시 중앙로 521,36.208722200000004,127.0812162,충청남도 논산시,041-746-6303,,"22,00:00~24:00","23,00:00~24:00","24,00:00~24:00","25,00:00~24:00","26,00:00~24:00"
261,충청남도,대흥노상2주차장,노상,충청남도 논산시 강경읍 계백로105번길 8-23,36.155680100000005,127.01293059999999,충청남도 논산시,041-746-6303,,"22,00:00~24:00","23,00:00~24:00","24,00:00~24:00","25,00:00~24:00","26,00:00~24:00"
262,충청남도,대흥노상주차장,노상,충청남도 논산시  강경읍 옥녀봉로27번길 30-5,36.160849,127.0146018,충청남도 논산시,041-746-6303,,"22,00:00~24:00","23,00:00~24:00","24,00:00~24:00","25,00:00~24:00","26,00:00~24:00"
263,충청남도,대흥천변 노외주차장,노외,충청남도 논산시 계백로133번길 6-8 ,36.157080799999996,127.0145945,충청남도 논산시,041-746-6303,,"22,00:00~24:00","23,00:00~24:00","24,00:00~24:00","25,00:00~24:00","26,00:00~24:00"
264,충청남도,마산노상1주차장,노상,충청남도 논산시 안심로 66,36.126968700000006,127.0991249,충청남도 논산시,041-746-6303,,"22,00:00~24:00","23,00:00~24:00","24,00:00~24:00","25,00:00~24:00","26,00:00~24:00"
265,충청남도,마산안심로주차장,노상,충청남도 논산시 연무로 214-1,36.1288744,127.1023105,충청남도 논산시,041-746-6303,,"22,00:00~24:00","23,00:00~24:00","24,00:00~24:00","25,00:00~24:00","26,00:00~24:00"
266,충청남도,반월1노상주차장,노상,충청남도 논산시 해월로 181 ,36.20567929999999,127.08683870000002,충청남도 논산시,041-746-6303,,"22,00:00~24:00","23,00:00~24:00","24,00:00~24:00","25,00:00~24:00","26,00:00~24:00"
267,충청남도,반월2노상주차장,노상,충청남도 논산시 해월로 210 (반월동),36.209459100000004,127.095022,충청남도 논산시,041-746-6303,,"22,00:00~24:00","23,00:00~24:00","24,00:00~24:00","25,00:00~24:00","26,00:00~24:00"
268,충청남도,반월2 노외주차장,노외,충청남도 논산시 계백로 1029,36.20498320000001,127.09045859999999,충청남도 논산시,041-746-6303,,"22,00:00~24:00","23,00:00~24:00","24,00:00~24:00","25,00:00~24:00","26,00:00~24:00"
269,충청남도,반월3 노외주차장,노외,충청남도 논산시 해월로168번길 13-9,36.2046778,127.0866879,충청남도 논산시,041-746-6303,,"22,00:00~24:00","23,00:00~24:00","24,00:00~24:00","25,00:00~24:00","26,00:00~24:00"
270,충청남도,반월동 복개천 노상주차장,노상,충청남도 논산시 대화로 61,36.207960899999996,127.083248,충청남도 논산시,041-746-6303,,"22,00:00~24:00","23,00:00~24:00","24,00:00~24:00","25,00:00~24:00","26,00:00~24:00"
271,충청남도,부창로 공영주차장,노상,충청남도 논산시 부창로 34,36.195295200000004,127.08212579999999,충청남도 논산시,041-746-6303,,"22,00:00~24:00","23,00:00~24:00","24,00:00~24:00","25,00:00~24:00","26,00:00~24:00"
272,충청남도,안산보노외주차장,노외,충청남도 논산시 양촌면 황산벌로 457,36.1546951,127.22929280000001,충청남도 논산시,041-746-6303,,"22,00:00~24:00","23,00:00~24:00","24,00:00~24:00","25,00:00~24:00","26,00:00~24:00"
273,충청남도,안심 무료 노외주차장,노외,충청남도 논산시 연무읍 안심리 19-38,36.1288435,127.0971193,충청남도 논산시,041-746-6303,,"22,00:00~24:00","23,00:00~24:00","24,00:00~24:00","25,00:00~24:00","26,00:00~24:00"
274,충청남도,안심1 무료노외주차장,노외,충청남도 논산시 연무읍 안심로 6,36.1314362,127.1000771,충청남도 논산시,041-746-6303,,"22,00:00~24:00","23,00:00~24:00","24,00:00~24:00","25,00:00~24:00","26,00:00~24:00"
275,충청남도,안심2 무료노외주차장,노외,충청남도 논산시 안심로 59 ,36.1264745,127.0986084,충청남도 논산시,041-746-6303,,"22,00:00~24:00","23,00:00~24:00","24,00:00~24:00","25,00:00~24:00","26,00:00~24:00"
276,충청남도,안심3 무료노외주차장,노외,충청남도 논산시 안심로 35 ,36.124453,127.0981305,충청남도 논산시,041-746-6303,,"22,00:00~24:00","23,00:00~24:00","24,00:00~24:00","25,00:00~24:00","26,00:00~24:00"
277,충청남도,역전임시노외주차장,노외,충청남도 논산시 해월로 243,36.208457200000005,127.0925503,충청남도 논산시,041-746-6303,,"22,00:00~24:00","23,00:00~24:00","24,00:00~24:00","25,00:00~24:00","26,00:00~24:00"
278,충청남도,연산노상1주차장,노상,충청남도 논산시 선비로 275번길 31-2,36.21281099999999,127.20208999999998,충청남도 논산시,041-746-6303,,"22,00:00~24:00","23,00:00~24:00","24,00:00~24:00","25,00:00~24:00","26,00:00~24:00"
279,충청남도,연산노상2주차장,노상,충청남도 논산시 선비로 275번길 28,36.2126712,127.2003098,충청남도 논산시,041-746-6303,,"22,00:00~24:00","23,00:00~24:00","24,00:00~24:00","25,00:00~24:00","26,00:00~24:00"
280,충청남도,오거리주차장,노외,충청남도 논산시 사계로 308-12 ,36.2410095,127.06704520000001,충청남도 논산시,041-746-6303,,"22,00:00~24:00","23,00:00~24:00","24,00:00~24:00","25,00:00~24:00","26,00:00~24:00"
281,충청남도,옥녀교 주차장,노외,충청남도 논산시 강경포구길 12-4,36.162879700000005,127.01243909999998,충청남도 논산시,041-746-6303,,"22,00:00~24:00","23,00:00~24:00","24,00:00~24:00","25,00:00~24:00","26,00:00~24:00"
282,충청남도,옥녀봉 주차장,노외,충청남도 논산시 옥녀봉로 73번길 14,36.164669,127.01335139999999,충청남도 논산시,041-746-6303,,"22,00:00~24:00","23,00:00~24:00","24,00:00~24:00","25,00:00~24:00","26,00:00~24:00"
283,충청남도,죽평노상1주차장,노상,충청남도 논산시 득안대로 432-13 ,36.1083753,127.099676,충청남도 논산시,041-746-6303,,"22,00:00~24:00","23,00:00~24:00","24,00:00~24:00","25,00:00~24:00","26,00:00~24:00"
284,충청남도,죽평노상2주차장,노상,충청남도 논산시 득안대로 463,36.112016,127.09806609999998,충청남도 논산시,041-746-6303,,"22,00:00~24:00","23,00:00~24:00","24,00:00~24:00","25,00:00~24:00","26,00:00~24:00"
285,충청남도,죽평노외주차장,노외,충청남도 논산시 봉황로 432-14,36.0942201,127.1104456,충청남도 논산시,041-746-6303,,"22,00:00~24:00","23,00:00~24:00","24,00:00~24:00","25,00:00~24:00","26,00:00~24:00"
286,충청남도,취암10노상주차장,노상,충청남도 논산시 계백로 1097,36.2087276,127.0963772,충청남도 논산시,041-746-6303,,"22,00:00~24:00","23,00:00~24:00","24,00:00~24:00","25,00:00~24:00","26,00:00~24:00"
287,충청남도,취암12노상주차장,노상,충청남도 논산시 중앙로 389,36.1990268,127.08961570000001,충청남도 논산시,041-746-6303,,"22,00:00~24:00","23,00:00~24:00","24,00:00~24:00","25,00:00~24:00","26,00:00~24:00"
288,충청남도,취암13노상주차장,노상,충청남도 논산시 계백로 995,36.2033367,127.0873918,충청남도 논산시,041-746-6303,,"22,00:00~24:00","23,00:00~24:00","24,00:00~24:00","25,00:00~24:00","26,00:00~24:00"
289,충청남도,취암1노상주차장,노상,충청남도 논산시 시민로 415,36.201406299999995,127.08645130000001,충청남도 논산시,041-746-6303,,"22,00:00~24:00","23,00:00~24:00","24,00:00~24:00","25,00:00~24:00","26,00:00~24:00"
290,충청남도,취암2노상주차장,노상,충청남도 논산시 계백로 1032,36.20483230000001,127.09100079999999,충청남도 논산시,041-746-6303,,"22,00:00~24:00","23,00:00~24:00","24,00:00~24:00","25,00:00~24:00","26,00:00~24:00"
291,충청남도,취암3노상주차장,노상,충청남도 논산시 시민로 374-2 ,36.1981771,127.08882050000001,충청남도 논산시,041-746-6303,,"22,00:00~24:00","23,00:00~24:00","24,00:00~24:00","25,00:00~24:00","26,00:00~24:00"
292,충청남도,취암4노상주차장,노상,충청남도 논산시 계백로 1019,36.20447619999999,127.08957040000001,충청남도 논산시,041-746-6303,,"22,00:00~24:00","23,00:00~24:00","24,00:00~24:00","25,00:00~24:00","26,00:00~24:00"
293,충청남도,취암5노상주차장,노상,충청남도 논산시 계백로 1008,36.20357449999999,127.0889125,충청남도 논산시,041-746-6303,,"22,00:00~24:00","23,00:00~24:00","24,00:00~24:00","25,00:00~24:00","26,00:00~24:00"
294,충청남도,취암8노상주차장,노상,충청남도 논산시  중앙로460-6,36.1964151,127.0929425,충청남도 논산시,041-746-6303,,"22,00:00~24:00","23,00:00~24:00","24,00:00~24:00","25,00:00~24:00","26,00:00~24:00"
295,충청남도,취암9노상주차장,노상,충청남도 논산시 계백로 1027 ,36.2048875,127.09032409999999,충청남도 논산시,041-746-6303,,"22,00:00~24:00","23,00:00~24:00","24,00:00~24:00","25,00:00~24:00","26,00:00~24:00"
296,충청남도,취암노외1주차장,노외,충청남도 논산시 시민로 359,36.1968351,127.08916740000001,충청남도 논산시,041-746-6303,,"22,00:00~24:00","23,00:00~24:00","24,00:00~24:00","25,00:00~24:00","26,00:00~24:00"
297,충청남도,취암노외2주차장,노외,충청남도 논산시 시민로331번길 10 ,36.1943906,127.08935579999999,충청남도 논산시,041-746-6303,,"22,00:00~24:00","23,00:00~24:00","24,00:00~24:00","25,00:00~24:00","26,00:00~24:00"
298,충청남도,취암노외3주차장,노외,충청남도 논산시 중앙로 422번길 11-1,36.2021856,127.08855279999999,충청남도 논산시,041-746-6303,,"22,00:00~24:00","23,00:00~24:00","24,00:00~24:00","25,00:00~24:00","26,00:00~24:00"
299,충청남도,취암노외4주차장,노외,충청남도 논산시 중앙로384번길 31-10 ,36.200621399999996,127.09250949999999,충청남도 논산시,041-746-6303,,"22,00:00~24:00","23,00:00~24:00","24,00:00~24:00","25,00:00~24:00","26,00:00~24:00"
300,충청남도,취암노외5주차장,노외,충청남도 논산시 관촉로 235번길 10-8,36.2018615,127.0952396,충청남도 논산시,041-746-6303,,"22,00:00~24:00","23,00:00~24:00","24,00:00~24:00","25,00:00~24:00","26,00:00~24:00"
301,충청남도,취암노외6주차장,노외,충청남도 논산시 취암동 1072-5,36.201752899999995,127.09494280000001,충청남도 논산시,041-746-6303,,"22,00:00~24:00","23,00:00~24:00","24,00:00~24:00","25,00:00~24:00","26,00:00~24:00"
302,충청남도,취암동 임시노외 주차장,노외,충청남도 논산시 부창로82번길 5-2,36.1953637,127.0870808,충청남도 논산시,041-746-6303,,"22,00:00~24:00","23,00:00~24:00","24,00:00~24:00","25,00:00~24:00","26,00:00~24:00"
303,충청남도,화지4통노외주차장,노외,충청남도 논산시 해월로 211번길 8-28,36.207523200000004,127.0903736,충청남도 논산시,041-746-6303,,"22,00:00~24:00","23,00:00~24:00","24,00:00~24:00","25,00:00~24:00","26,00:00~24:00"
304,충청남도,화지중앙시장 제1주차장,노상,충청남도 논산시 대교동 66-3,36.2085745,127.08523249999999,충청남도 논산시,041-735-3311,,,"23,00:00~24:00","24,00:00~24:00","25,00:00~24:00","26,00:00~24:00"
305,충청남도,화지중앙시장 제2주차장,노외,충청남도 논산시 화지동 42-11,36.2073264,127.08572859999998,충청남도 논산시,041-735-3311,,,"23,00:00~24:00","24,00:00~24:00","25,00:00~24:00","26,00:00~24:00"
306,충청남도,화지중앙시장 제3주차장,노외,충청남도 논산시 화지동 71-3,36.2065896,127.08424029999999,충청남도 논산시,041-735-3311,,,"23,00:00~24:00","24,00:00~24:00","25,00:00~24:00","26,00:00~24:00"
307,충청남도,사비로유료주차장,노상,충청남도  부여군 부여읍 사비로(뉴욕제과~feel),36.2808287,126.910789,충청남도 부여군,041-830-2282,,"22,00:00~24:00","23,00:00~24:00","24,00:00~24:00","25,00:00~24:00","26,00:00~24:00"
308,충청남도,사비로노상주차장,노상,충청남도 부여군 부여읍 사비로(롯데리아~농협중앙회),36.2803843,126.91081670000001,충청남도 부여군,041-830-2282,,"22,00:00~24:00","23,00:00~24:00","24,00:00~24:00","25,00:00~24:00","26,00:00~24:00"
309,충청남도,석탑로노상주차장,노상,충청남도 부여군 부여읍 석탑로(만다린~부여군민체육관),36.276968100000005,126.91323329999999,충청남도 부여군,041-830-2282,,"22,00:00~24:00","23,00:00~24:00","24,00:00~24:00","25,00:00~24:00","26,00:00~24:00"
310,충청남도,성왕로터리주차장,노상,충청남도 부여군 부여읍 성왕로터리(부여로6-6),36.2825229,126.9102612,충청남도 부여군,041-830-2282,,"22,00:00~24:00","23,00:00~24:00","24,00:00~24:00","25,00:00~24:00","26,00:00~24:00"
311,충청남도,계백로터리주차장,노상,충청남도 부여군 부여읍 계백로터리(석탑로6-30),36.2769,126.9127236,충청남도 부여군,041-830-2282,,"22,00:00~24:00","23,00:00~24:00","24,00:00~24:00","25,00:00~24:00","26,00:00~24:00"
312,충청남도,관광주차장,노외,충청남도 부여군 부여읍 관북리 77,36.2840387,126.91442340000002,충청남도 부여군,041-830-2627,,"22,00:00~24:00","23,00:00~24:00","24,00:00~24:00","25,00:00~24:00","26,00:00~24:00"
313,충청남도,정림사지주차장,노외,충청남도 부여군 부여읍 정림로 83,36.2787109,126.91425009999999,충청남도 부여군,041-830-2627,,"22,00:00~24:00","23,00:00~24:00","24,00:00~24:00","25,00:00~24:00","26,00:00~24:00"
314,충청남도,서동공원(동문주차장),노외,충청남도 부여군 부여읍 동남리 152-1외7,36.2717025,126.9132008,충청남도 부여군,041-830-2627,,"22,00:00~24:00","23,00:00~24:00","24,00:00~24:00","25,00:00~24:00","26,00:00~24:00"
315,충청남도,서동공원(서문주차장),노외,충청남도 부여군 부여읍 동남리 167-1외7,36.2708231,126.9096615,충청남도 부여군,041-830-2627,,"22,00:00~24:00","23,00:00~24:00","24,00:00~24:00","25,00:00~24:00","26,00:00~24:00"
316,충청남도,"서동공원(임시주차장)
군수리사지주차장",노외,충청남도 부여군 부여읍 군수리 22-1외4,36.268135799999996,126.90957759999998,충청남도 부여군,041-830-2627,,"22,00:00~24:00","23,00:00~24:00","24,00:00~24:00","25,00:00~24:00","26,00:00~24:00"
317,충청남도,"서동문화관주차장
서동문화관앞",노외,충청남도 부여군 부여읍 동남리 134-5,36.2720696,126.91472379999999,충청남도 부여군,041-830-2627,,"22,00:00~24:00","23,00:00~24:00","24,00:00~24:00","25,00:00~24:00","26,00:00~24:00"
318,충청남도,선화공원주차장,노외,충청남도 부여군 부여읍 동남리 597-10,36.275577500000004,126.90065120000001,충청남도 부여군,041-830-2203,,"22,00:00~24:00","23,00:00~24:00","24,00:00~24:00","25,00:00~24:00","26,00:00~24:00"
319,충청남도,구드래주차장,노외,충청남도 부여군 부여읍 구교리 111-9,36.286031200000004,126.9086663,충청남도 부여군,041-830-2627,,"22,00:00~24:00","23,00:00~24:00","24,00:00~24:00","25,00:00~24:00","26,00:00~24:00"
320,충청남도,구드래나루터주차장,노외,충청남도 부여군 부여읍 구교리 1-1,36.2901679,126.90848740000001,충청남도 부여군,041-830-2627,,"22,00:00~24:00","23,00:00~24:00","24,00:00~24:00","25,00:00~24:00","26,00:00~24:00"
321,충청남도,백강주차장,노외,충청남도 부여군 부여읍 구교리 366-3,36.2787262,126.905056,충청남도 부여군,041-830-2282,,"22,00:00~24:00","23,00:00~24:00","24,00:00~24:00","25,00:00~24:00","26,00:00~24:00"
322,충청남도,구아주차장,노외,충청남도 부여군 부여읍 구아리 111,36.28487,126.90802690000001,충청남도 부여군,041-830-2282,,"22,00:00~24:00","23,00:00~24:00","24,00:00~24:00","25,00:00~24:00","26,00:00~24:00"
323,충청남도,삼정식당 앞 주차장,노외,충청남도 부여군 부여읍 구아리 10-1,36.2841411,126.9117115,충청남도 부여군,041-830-2627,,"22,00:00~24:00","23,00:00~24:00","24,00:00~24:00","25,00:00~24:00","26,00:00~24:00"
324,충청남도,구아리노외주차장,노외,충청남도 부여군 부여읍 구아리 272,36.2795321,126.91189009999998,충청남도 부여군,041-830-2282,,"22,00:00~24:00","23,00:00~24:00","24,00:00~24:00","25,00:00~24:00","26,00:00~24:00"
325,충청남도,원도심쌈지주차장,노외,충청남도 부여군 부여읍 구아리 162-8,36.2799669,126.9089723,충청남도 부여군,041-830-2282,,"22,00:00~24:00","23,00:00~24:00","24,00:00~24:00","25,00:00~24:00","26,00:00~24:00"
326,충청남도,원도심쌈지주차장,노외,충청남도 부여군 부여읍 구아리 343,36.2818344,126.90978,충청남도 부여군,041-830-2282,,"22,00:00~24:00","23,00:00~24:00","24,00:00~24:00","25,00:00~24:00","26,00:00~24:00"
327,충청남도,고분군주차장,노외,충청남도 부여군 부여읍 능산리 399-1,36.2760732,126.94170929999999,충청남도 부여군,041-830-2627,,"22,00:00~24:00","23,00:00~24:00","24,00:00~24:00","25,00:00~24:00","26,00:00~24:00"
328,충청남도,능안골주차장,노외,충청남도 부여군 부여읍 능산리 141-3,36.2713833,126.96739620000001,충청남도 부여군,041-830-2627,,"22,00:00~24:00","23,00:00~24:00","24,00:00~24:00","25,00:00~24:00","26,00:00~24:00"
329,충청남도,수북정주차장,노외,충청남도 부여군 규암면 규암리 145-13,36.2763124,126.88977109999999,충청남도 부여군,041-830-2282,,"22,00:00~24:00","23,00:00~24:00","24,00:00~24:00","25,00:00~24:00","26,00:00~24:00"
330,충청남도,규암주차장,노외,충청남도 부여군 규암면 규암리 152-1,36.2748891,126.8901263,충청남도 부여군,041-830-6353,,"22,00:00~24:00","23,00:00~24:00","24,00:00~24:00","25,00:00~24:00","26,00:00~24:00"
331,충청남도,규암시장주차장,노외,충청남도 부여군 규암면 규암리 132-17,36.2734942,126.8893759,충청남도 부여군,041-830-6353,,"22,00:00~24:00","23,00:00~24:00","24,00:00~24:00","25,00:00~24:00","26,00:00~24:00"
332,충청남도,은산시장주차장,노외,충청남도 부여군 은산면 신대리 366-1,36.3089189,126.8535384,충청남도 부여군,041-830-2562,,"22,00:00~24:00","23,00:00~24:00","24,00:00~24:00","25,00:00~24:00","26,00:00~24:00"
333,충청남도,무량사주차장,노외,충청남도 부여군 외산면 만수리 96-1,36.314345700000004,126.69595509999999,충청남도 부여군,041-830-2511,,"22,00:00~24:00","23,00:00~24:00","24,00:00~24:00","25,00:00~24:00","26,00:00~24:00"
334,충청남도,외산시장주차장,노외,충청남도 부여군 외산면 만수리 2-26,36.30308970000001,126.70523329999999,충청남도 부여군,041-830-2572,,"22,00:00~24:00","23,00:00~24:00","24,00:00~24:00","25,00:00~24:00","26,00:00~24:00"
335,충청남도,휴양림주차장,노외,충청남도 부여군 외산면 삼산리 254,36.338558899999995,126.71299170000002,충청남도 부여군,041-832-6561,,"22,00:00~24:00","23,00:00~24:00","24,00:00~24:00","25,00:00~24:00","26,00:00~24:00"
336,충청남도,논티주차장,노외,충청남도 부여군 구룡면 논티리 104-3,36.243787700000006,126.8069543,충청남도 부여군,041-830-2592,,"22,00:00~24:00","23,00:00~24:00","24,00:00~24:00","25,00:00~24:00","26,00:00~24:00"
337,충청남도,홍산시장주차장,노외,충청남도 부여군 홍산면 남촌리 148,36.2142323,126.75703030000001,충청남도 부여군,041-830-2602,,"22,00:00~24:00","23,00:00~24:00","24,00:00~24:00","25,00:00~24:00","26,00:00~24:00"
338,충청남도,옥산주차장,노외,충청남도 부여군 옥산면 안서리 368-1,36.1914473,126.73359690000001,충청남도 부여군,041-830-2612,,"22,00:00~24:00","23,00:00~24:00","24,00:00~24:00","25,00:00~24:00","26,00:00~24:00"
339,충청남도,천당주차장,노외,충청남도 부여군 충화면 천당리 191-2,36.1823394,126.82248090000002,충청남도 부여군,041-830-2632,,"22,00:00~24:00","23,00:00~24:00","24,00:00~24:00","25,00:00~24:00","26,00:00~24:00"
340,충청남도,임천시장주차장,노외,충청남도 부여군 임천면 군사리 88,36.1896352,126.8929804,충청남도 부여군,041-830-2652,,"22,00:00~24:00","23,00:00~24:00","24,00:00~24:00","25,00:00~24:00","26,00:00~24:00"
341,충청남도,군사리하상주차장,노외,충청남도 부여군 임천면 군사리 66-1,36.188009,126.89390829999999,충청남도 부여군,041-830-2652,,"22,00:00~24:00","23,00:00~24:00","24,00:00~24:00","25,00:00~24:00","26,00:00~24:00"
342,충청남도,장암주차장,노외,충청남도 부여군 장암면 석동리 662-1,36.2435634,126.8843936,충청남도 부여군,041-830-2662,,"22,00:00~24:00","23,00:00~24:00","24,00:00~24:00","25,00:00~24:00","26,00:00~24:00"
343,충청남도,세도시장주차장,노외,충청남도 부여군 세도면 간대리 135-1,36.1698035,126.9462021,충청남도 부여군,041-830-2672,,"22,00:00~24:00","23,00:00~24:00","24,00:00~24:00","25,00:00~24:00","26,00:00~24:00"
344,충청남도,서천제15공용주차장,노외,충청남도 서천군 서천읍군사리642,36.076896399999995,126.69075020000001,충청남도 서천군청,041-950-4127,,"22,00:00~24:00","23,00:00~24:00","24,00:00~24:00","25,00:00~24:00","26,00:00~24:00"
345,충청남도,서천제16공용주차장,노외,충청남도 서천군 서천읍군사리196,36.0772033,126.69608629999999,충청남도 서천군청,041-950-4127,,"22,00:00~24:00","23,00:00~24:00","24,00:00~24:00","25,00:00~24:00","26,00:00~24:00"
346,충청남도,서천제17공용주차장,노외,충청남도 서천군 서천읍군사리700,36.074520899999996,126.6863213,충청남도 서천군청,041-950-4127,,"22,00:00~24:00","23,00:00~24:00","24,00:00~24:00","25,00:00~24:00","26,00:00~24:00"
347,충청남도,하구둑유원지주차장,노외,충청남도 서천군 마서면도삼리71,36.0194201,126.73694540000001,충청남도 서천군청,041-950-4127,,"22,00:00~24:00","23,00:00~24:00","24,00:00~24:00","25,00:00~24:00","26,00:00~24:00"
348,충청남도,남전리 주차장,노외,충청남도 서천군 마서면남전리468,36.049085600000005,126.66652140000002,충청남도 서천군청,041-950-4127,,"22,00:00~24:00","23,00:00~24:00","24,00:00~24:00","25,00:00~24:00","26,00:00~24:00"
349,충청남도,신포리 주차장,노외,충청남도 서천군 마서면신포1리403,36.0422988,126.7329789,충청남도 서천군청,041-950-4127,,"22,00:00~24:00","23,00:00~24:00","24,00:00~24:00","25,00:00~24:00","26,00:00~24:00"
350,충청남도,옥산리 주차장,노외,충청남도 서천군 마서면옥산리679,36.066590000000005,126.6566311,충청남도 서천군청,041-950-4127,,"22,00:00~24:00","23,00:00~24:00","24,00:00~24:00","25,00:00~24:00","26,00:00~24:00"
351,충청남도,산내리 주차장,노외,충청남도 서천군 마서면산내리60,36.0501152,126.7315476,충청남도 서천군청,041-950-4127,,"22,00:00~24:00","23,00:00~24:00","24,00:00~24:00","25,00:00~24:00","26,00:00~24:00"
352,충청남도,옥북리 주차장,노외,충청남도 서천군 마서면옥북리165,36.0475604,126.691244,충청남도 서천군청,041-950-4127,,"22,00:00~24:00","23,00:00~24:00","24,00:00~24:00","25,00:00~24:00","26,00:00~24:00"
353,충청남도,한성리 주차장,노외,충청남도 서천군 마서면한성리320,36.072273200000005,126.6478256,충청남도 서천군청,041-950-4127,,"22,00:00~24:00","23,00:00~24:00","24,00:00~24:00","25,00:00~24:00","26,00:00~24:00"
354,충청남도,송석리 주차장,노외,충청남도 서천군 마서면송석2리551,36.0718017,126.6346956,충청남도 서천군청,041-950-4127,,"22,00:00~24:00","23,00:00~24:00","24,00:00~24:00","25,00:00~24:00","26,00:00~24:00"
355,충청남도,송내리 주차장,노외,충청남도 서천군 마서면송내1리567,36.062059000000005,126.70675179999999,충청남도 서천군청,041-950-4127,,"22,00:00~24:00","23,00:00~24:00","24,00:00~24:00","25,00:00~24:00","26,00:00~24:00"
356,충청남도,한성리 주차장,노외,충청남도 서천군 마서면한성3리255,36.08237580000001,126.64484750000001,충청남도 서천군청,041-950-4127,,"22,00:00~24:00","23,00:00~24:00","24,00:00~24:00","25,00:00~24:00","26,00:00~24:00"
357,충청남도,옥북리 주차장,노외,충청남도 서천군 마서면옥북2리455,36.062059000000005,126.70675179999999,충청남도 서천군청,041-950-4127,,"22,00:00~24:00","23,00:00~24:00","24,00:00~24:00","25,00:00~24:00","26,00:00~24:00"
358,충청남도,계동리 주차장,노외,충청남도 서천군 마서면계동2리416,36.062059000000005,126.70675179999999,충청남도 서천군청,041-950-4127,,"22,00:00~24:00","23,00:00~24:00","24,00:00~24:00","25,00:00~24:00","26,00:00~24:00"
359,충청남도,북리주차장,노외,충청남도 서천군 화양면금당리(북리)146,36.061684,126.7595075,충청남도 서천군청,041-950-4127,,"22,00:00~24:00","23,00:00~24:00","24,00:00~24:00","25,00:00~24:00","26,00:00~24:00"
360,충청남도,하리공용주차장,노외,충청남도 서천군 화양면금당리(하리)423,36.0575751,126.75564299999999,충청남도 서천군청,041-950-4127,,"22,00:00~24:00","23,00:00~24:00","24,00:00~24:00","25,00:00~24:00","26,00:00~24:00"
361,충청남도,추북리주차장,노외,충청남도 서천군 화양면추동리182,36.0580447,126.78172759999998,충청남도 서천군청,041-950-4127,,"22,00:00~24:00","23,00:00~24:00","24,00:00~24:00","25,00:00~24:00","26,00:00~24:00"
362,충청남도,동서천농협주차장,노외,충청남도 서천군 화양면옥포리248,36.0392674,126.7827093,충청남도 서천군청,041-950-4127,,"22,00:00~24:00","23,00:00~24:00","24,00:00~24:00","25,00:00~24:00","26,00:00~24:00"
363,충청남도,월산리 주차장,노외,충청남도 서천군 화양면월산리180,36.0660939,126.82076909999999,충청남도 서천군청,041-950-4127,,"22,00:00~24:00","23,00:00~24:00","24,00:00~24:00","25,00:00~24:00","26,00:00~24:00"
364,충청남도,장상리마을주차장,노외,충청남도 서천군 화양면장상리241,36.0434191,126.7408834,충청남도 서천군청,041-950-4127,,"22,00:00~24:00","23,00:00~24:00","24,00:00~24:00","25,00:00~24:00","26,00:00~24:00"
365,충청남도,영모리마을주차장,노외,충청남도 서천군 기산면영모리246,36.08630529999999,126.7799149,충청남도 서천군청,041-950-4127,,"22,00:00~24:00","23,00:00~24:00","24,00:00~24:00","25,00:00~24:00","26,00:00~24:00"
366,충청남도,내산정리마을주차장,노외,충청남도 서천군 기산면내산정리75,36.092996,126.747881,충청남도 서천군청,041-950-4127,,"22,00:00~24:00","23,00:00~24:00","24,00:00~24:00","25,00:00~24:00","26,00:00~24:00"
367,충청남도,월기리마을주차장,노외,충청남도 서천군 기산면월기리349,36.1038244,126.7670635,충청남도 서천군청,041-950-4127,,"22,00:00~24:00","23,00:00~24:00","24,00:00~24:00","25,00:00~24:00","26,00:00~24:00"
368,충청남도,두북리마을주차장,노외,충청남도 서천군 기산면두북리123,36.0716489,126.74779469999999,충청남도 서천군청,041-950-4127,,"22,00:00~24:00","23,00:00~24:00","24,00:00~24:00","25,00:00~24:00","26,00:00~24:00"
369,충청남도,두남리마을주차장,노외,충청남도 서천군 기산면두남리40,36.0636581,126.74663159999999,충청남도 서천군청,041-950-4127,,"22,00:00~24:00","23,00:00~24:00","24,00:00~24:00","25,00:00~24:00","26,00:00~24:00"
370,충청남도,신산리1마을주차장,노외,충청남도 서천군 기산면신산리120,36.0809383,126.75936270000001,충청남도 서천군청,041-950-4127,,"22,00:00~24:00","23,00:00~24:00","24,00:00~24:00","25,00:00~24:00","26,00:00~24:00"
371,충청남도,신산리2마을주차장,노외,충청남도 서천군 기산면신산리92,36.0794611,126.75908729999999,충청남도 서천군청,041-950-4127,,"22,00:00~24:00","23,00:00~24:00","24,00:00~24:00","25,00:00~24:00","26,00:00~24:00"
372,충청남도,화산리마을주차장,노외,충청남도 서천군 기산면화산리245,36.0732005,126.76329979999998,충청남도 서천군청,041-950-4127,,"22,00:00~24:00","23,00:00~24:00","24,00:00~24:00","25,00:00~24:00","26,00:00~24:00"
373,충청남도,계촌리마을주차장,노외,충청남도 서천군 기산면계촌리3,36.0718943,126.74687720000001,충청남도 서천군청,041-950-4127,,"22,00:00~24:00","23,00:00~24:00","24,00:00~24:00","25,00:00~24:00","26,00:00~24:00"
374,충청남도,원길리마을주차장,노외,충청남도 서천군 기산면원길리386,36.076238200000006,126.737001,충청남도 서천군청,041-950-4127,,"22,00:00~24:00","23,00:00~24:00","24,00:00~24:00","25,00:00~24:00","26,00:00~24:00"
375,충청남도,한산모시관주차장,노외,충청남도 서천군 한산면지현리60,36.080968799999994,126.802582,충청남도 서천군청,041-950-4127,,"22,00:00~24:00","23,00:00~24:00","24,00:00~24:00","25,00:00~24:00","26,00:00~24:00"
376,충청남도,신성리갈대밭주차장,노외,충청남도 서천군 한산면신성리158,36.070530100000006,126.85302709999999,충청남도 서천군청,041-950-4127,,"22,00:00~24:00","23,00:00~24:00","24,00:00~24:00","25,00:00~24:00","26,00:00~24:00"
377,충청남도,지현3리 주차장,노외,충청남도 서천군 한산면지현리110,36.0832472,126.8034024,충청남도 서천군청,041-950-4127,,"22,00:00~24:00","23,00:00~24:00","24,00:00~24:00","25,00:00~24:00","26,00:00~24:00"
378,충청남도,연봉리 주차장,노외,충청남도 서천군 한산면연봉리300,36.0693863,126.8382239,충청남도 서천군청,041-950-4127,,"22,00:00~24:00","23,00:00~24:00","24,00:00~24:00","25,00:00~24:00","26,00:00~24:00"
379,충청남도,토산리 주차장,노외,충청남도 서천군 한산면동지리14,36.09977689999999,126.83310800000001,충청남도 서천군청,041-950-4127,,"22,00:00~24:00","23,00:00~24:00","24,00:00~24:00","25,00:00~24:00","26,00:00~24:00"
380,충청남도,나교리 주차장,노외,충청남도 서천군 한산면나교리157,36.1040943,126.8348256,충청남도 서천군청,041-950-4127,,"22,00:00~24:00","23,00:00~24:00","24,00:00~24:00","25,00:00~24:00","26,00:00~24:00"
381,충청남도,여사리 주차장,노외,충청남도 서천군 한산면여사리17,36.112522999999996,126.83494540000001,충청남도 서천군청,041-950-4127,,"22,00:00~24:00","23,00:00~24:00","24,00:00~24:00","25,00:00~24:00","26,00:00~24:00"
382,충청남도,송산리 주차장 ,노외,충청남도 서천군 한산면송산리296,36.1027783,126.8165996,충청남도 서천군청,041-950-4127,,"22,00:00~24:00","23,00:00~24:00","24,00:00~24:00","25,00:00~24:00","26,00:00~24:00"
383,충청남도,종지리 주차장,노외,충청남도 서천군 한산면종지리244,36.100165999999994,126.80727040000001,충청남도 서천군청,041-950-4127,,"22,00:00~24:00","23,00:00~24:00","24,00:00~24:00","25,00:00~24:00","26,00:00~24:00"
384,충청남도,고촌리 주차장,노외,충청남도 서천군 한산면죽촌리282,36.0945378,126.79314070000001,충청남도 서천군청,041-950-4127,,"22,00:00~24:00","23,00:00~24:00","24,00:00~24:00","25,00:00~24:00","26,00:00~24:00"
385,충청남도,관포리 주차장,노외,충청남도 서천군 마산면관포리158,36.161601,126.7807629,충청남도 서천군청,041-950-4127,,"22,00:00~24:00","23,00:00~24:00","24,00:00~24:00","25,00:00~24:00","26,00:00~24:00"
386,충청남도,요곡리 주차장,노외,충청남도 서천군 마산면요곡리475,36.1299361,126.819056,충청남도 서천군청,041-950-4127,,"22,00:00~24:00","23,00:00~24:00","24,00:00~24:00","25,00:00~24:00","26,00:00~24:00"
387,충청남도,요곡리 주차장,노외,충청남도 서천군 마산면요곡리484,36.127837799999995,126.8216936,충청남도 서천군청,041-950-4127,,"22,00:00~24:00","23,00:00~24:00","24,00:00~24:00","25,00:00~24:00","26,00:00~24:00"
388,충청남도,이사리 주차장,노외,충청남도 서천군 마산면이사리238,36.1051507,126.77607959999999,충청남도 서천군청,041-950-4127,,"22,00:00~24:00","23,00:00~24:00","24,00:00~24:00","25,00:00~24:00","26,00:00~24:00"
389,충청남도,송림리 주차장,노외,충청남도 서천군 마산면송림리162,36.1137735,126.80606940000001,충청남도 서천군청,041-950-4127,,"22,00:00~24:00","23,00:00~24:00","24,00:00~24:00","25,00:00~24:00","26,00:00~24:00"
390,충청남도,신봉리 주차장,노외,충청남도 서천군 마산면신봉리248,36.1420612,126.78003090000001,충청남도 서천군청,041-950-4127,,"22,00:00~24:00","23,00:00~24:00","24,00:00~24:00","25,00:00~24:00","26,00:00~24:00"
391,충청남도,생태공원 주차장,노외,충청남도 서천군 마산면신봉리226,36.141775200000005,126.77893429999999,충청남도 서천군청,041-950-4127,,"22,00:00~24:00","23,00:00~24:00","24,00:00~24:00","25,00:00~24:00","26,00:00~24:00"
392,충청남도,나궁리 주차장,노외,충청남도 서천군 마산면나궁리77,36.168055200000005,126.78010829999998,충청남도 서천군청,041-950-4127,,"22,00:00~24:00","23,00:00~24:00","24,00:00~24:00","25,00:00~24:00","26,00:00~24:00"
393,충청남도,신장리 주차장,노외,충청남도 서천군 마산면신장리388,36.1174947,126.7929461,충청남도 서천군청,041-950-4127,,"22,00:00~24:00","23,00:00~24:00","24,00:00~24:00","25,00:00~24:00","26,00:00~24:00"
394,충청남도,초현리주차장,노외,충청남도 서천군 시초면초현리67,36.1220705,126.7508601,충청남도 서천군청,041-950-4127,,"22,00:00~24:00","23,00:00~24:00","24,00:00~24:00","25,00:00~24:00","26,00:00~24:00"
395,충청남도,태성1리주차장,노외,충청남도 서천군 시초면태성리318,36.1174124,126.76681,충청남도 서천군청,041-950-4127,,"22,00:00~24:00","23,00:00~24:00","24,00:00~24:00","25,00:00~24:00","26,00:00~24:00"
396,충청남도,신곡1리주차장,노외,충청남도 서천군 시초면신곡리311,36.1159527,126.7522133,충청남도 서천군청,041-950-4127,,"22,00:00~24:00","23,00:00~24:00","24,00:00~24:00","25,00:00~24:00","26,00:00~24:00"
397,충청남도,북산리 주차장,노외,충청남도 서천군 문산면북산리96,36.1213376,126.71867040000001,충청남도 서천군청,041-950-4127,,"22,00:00~24:00","23,00:00~24:00","24,00:00~24:00","25,00:00~24:00","26,00:00~24:00"
398,충청남도,북산2리2차장,노외,충청남도 서천군 문산면북산리125,36.1175141,126.7116504,충청남도 서천군청,041-950-4127,,"22,00:00~24:00","23,00:00~24:00","24,00:00~24:00","25,00:00~24:00","26,00:00~24:00"
399,충청남도,수암리 주차장,노외,충청남도 서천군 문산면수암리561,36.1454266,126.7251967,충청남도 서천군청,041-950-4127,,"22,00:00~24:00","23,00:00~24:00","24,00:00~24:00","25,00:00~24:00","26,00:00~24:00"
400,충청남도,만덕리주차장(마을회관앞),노외,충청남도 서천군 판교면만덕리117,36.1461464,126.6977795,충청남도 서천군청,041-950-4127,,"22,00:00~24:00","23,00:00~24:00","24,00:00~24:00","25,00:00~24:00","26,00:00~24:00"
401,충청남도,만덕리주차장,노외,충청남도 서천군 판교면만덕리66,36.1550906,126.70114879999998,충청남도 서천군청,041-950-4127,,"22,00:00~24:00","23,00:00~24:00","24,00:00~24:00","25,00:00~24:00","26,00:00~24:00"
402,충청남도,복대리주차장(구 마을회관앞),노외,충청남도 서천군 판교면복대리79,36.1718771,126.6911783,충청남도 서천군청,041-950-4127,,"22,00:00~24:00","23,00:00~24:00","24,00:00~24:00","25,00:00~24:00","26,00:00~24:00"
403,충청남도,복대1리마을주차장,노외,충청남도 서천군 판교면복대리341,36.1833,126.6878844,충청남도 서천군청,041-950-4127,,"22,00:00~24:00","23,00:00~24:00","24,00:00~24:00","25,00:00~24:00","26,00:00~24:00"
404,충청남도,복대1리주차장,노외,충청남도 서천군 판교면복대리464,36.178729800000006,126.688771,충청남도 서천군청,041-950-4127,,"22,00:00~24:00","23,00:00~24:00","24,00:00~24:00","25,00:00~24:00","26,00:00~24:00"
405,충청남도,복대리주차장,노외,충청남도 서천군 판교면복대리553,36.17265829999999,126.6893524,충청남도 서천군청,041-950-4127,,"22,00:00~24:00","23,00:00~24:00","24,00:00~24:00","25,00:00~24:00","26,00:00~24:00"
406,충청남도,복대리주차장,노외,충청남도 서천군 판교면복대리538,36.1724477,126.68674159999999,충청남도 서천군청,041-950-4127,,"22,00:00~24:00","23,00:00~24:00","24,00:00~24:00","25,00:00~24:00","26,00:00~24:00"
407,충청남도,마대리주차장(마을회관옆),노외,충청남도 서천군 판교면마대리120,36.169459,126.67893659999999,충청남도 서천군청,041-950-4127,,"22,00:00~24:00","23,00:00~24:00","24,00:00~24:00","25,00:00~24:00","26,00:00~24:00"
408,충청남도,수성리주차장,노외,충청남도 서천군 판교면수성리262,36.1546014,126.66252240000001,충청남도 서천군청,041-950-4127,,"22,00:00~24:00","23,00:00~24:00","24,00:00~24:00","25,00:00~24:00","26,00:00~24:00"
409,충청남도,상좌라주차장,노외,충청남도 서천군 판교면상좌리409,36.1487272,126.6533437,충청남도 서천군청,041-950-4127,,"22,00:00~24:00","23,00:00~24:00","24,00:00~24:00","25,00:00~24:00","26,00:00~24:00"
410,충청남도,상좌리 가좌울주차장,노외,충청남도 서천군 판교면상좌리61,36.147459600000005,126.6594101,충청남도 서천군청,041-950-4127,,"22,00:00~24:00","23,00:00~24:00","24,00:00~24:00","25,00:00~24:00","26,00:00~24:00"
411,충청남도,우라리주차장(마을회관앞),노외,충청남도 서천군 판교면우라리119,36.140996200000004,126.6687065,충청남도 서천군청,041-950-4127,,"22,00:00~24:00","23,00:00~24:00","24,00:00~24:00","25,00:00~24:00","26,00:00~24:00"
412,충청남도,판교리주차장(마을회관앞),노외,충청남도 서천군 판교면판교리137,36.16893579999999,126.69889189999999,충청남도 서천군청,041-950-4127,,"22,00:00~24:00","23,00:00~24:00","24,00:00~24:00","25,00:00~24:00","26,00:00~24:00"
413,충청남도,후동리주차장,노외,충청남도 서천군 판교면후동리234,36.147713,126.68617179999998,충청남도 서천군청,041-950-4127,,"22,00:00~24:00","23,00:00~24:00","24,00:00~24:00","25,00:00~24:00","26,00:00~24:00"
414,충청남도,저산리주차장,노외,충청남도 서천군 판교면저산리362,36.161871399999995,126.67442949999999,충청남도 서천군청,041-950-4127,,"22,00:00~24:00","23,00:00~24:00","24,00:00~24:00","25,00:00~24:00","26,00:00~24:00"
415,충청남도,흥림리주차장,노외,충청남도 서천군 판교면흥림리92,36.1368766,126.70036809999999,충청남도 서천군청,041-950-4127,,"22,00:00~24:00","23,00:00~24:00","24,00:00~24:00","25,00:00~24:00","26,00:00~24:00"
416,충청남도,현암리주차장,노외,충청남도 서천군 판교면현암리154,36.1569135,126.6897912,충청남도 서천군청,041-950-4127,,"22,00:00~24:00","23,00:00~24:00","24,00:00~24:00","25,00:00~24:00","26,00:00~24:00"
417,충청남도,신검리 주차장,노외,충청남도 서천군 종천면신검리221,36.1252104,126.6369705,충청남도 서천군청,041-950-4127,,"22,00:00~24:00","23,00:00~24:00","24,00:00~24:00","25,00:00~24:00","26,00:00~24:00"
418,충청남도,백운 주차장,노외,충청남도 서천군 종천면종천2리179,36.1126777,126.6429024,충청남도 서천군청,041-950-4127,,"22,00:00~24:00","23,00:00~24:00","24,00:00~24:00","25,00:00~24:00","26,00:00~24:00"
419,충청남도,당정2리 주차장,노외,충청남도 서천군 종천면당정2리545,36.094995700000005,126.634863,충청남도 서천군청,041-950-4127,,"22,00:00~24:00","23,00:00~24:00","24,00:00~24:00","25,00:00~24:00","26,00:00~24:00"
420,충청남도,당정3리 주차장,노외,충청남도 서천군 종천면당정3리20,36.094995700000005,126.634863,충청남도 서천군청,041-950-4127,,"22,00:00~24:00","23,00:00~24:00","24,00:00~24:00","25,00:00~24:00","26,00:00~24:00"
421,충청남도,장구2리 주차장,노외,충청남도 서천군 종천면장구2리259,36.0974907,126.67010330000001,충청남도 서천군청,041-950-4127,,"22,00:00~24:00","23,00:00~24:00","24,00:00~24:00","25,00:00~24:00","26,00:00~24:00"
422,충청남도,장구교회 주차장,노외,충청남도 서천군 종천면장구2리276,36.0974907,126.67010330000001,충청남도 서천군청,041-950-4127,,"22,00:00~24:00","23,00:00~24:00","24,00:00~24:00","25,00:00~24:00","26,00:00~24:00"
423,충청남도,산천1리 주차장,노외,충청남도 서천군 종천면산천1리519,36.1017906,126.67001119999999,충청남도 서천군청,041-950-4127,,"22,00:00~24:00","23,00:00~24:00","24,00:00~24:00","25,00:00~24:00","26,00:00~24:00"
424,충청남도,석촌2리 주차장,노외,충청남도 서천군 종천면석촌2리112,36.117895000000004,126.704399,충청남도 서천군청,041-950-4127,,"22,00:00~24:00","23,00:00~24:00","24,00:00~24:00","25,00:00~24:00","26,00:00~24:00"
425,충청남도,성내2리 마을주차장,노외,충청남도 서천군 비인면성내리263,36.142098499999996,126.605529,충청남도 서천군청,041-950-4127,,"22,00:00~24:00","23,00:00~24:00","24,00:00~24:00","25,00:00~24:00","26,00:00~24:00"
426,충청남도,선도1리 마을주차장,노외,충청남도 서천군 비인면선도리606,36.13552670000001,126.58285890000002,충청남도 서천군청,041-950-4127,,"22,00:00~24:00","23,00:00~24:00","24,00:00~24:00","25,00:00~24:00","26,00:00~24:00"
427,충청남도,성내3리 마을주차장,노외,충청남도 서천군 비인면성내리384,36.13773629999999,126.60603619999999,충청남도 서천군청,041-950-4127,,"22,00:00~24:00","23,00:00~24:00","24,00:00~24:00","25,00:00~24:00","26,00:00~24:00"
428,충청남도,장포2리 마을주차장,노외,충청남도 서천군 비인면장포2리44,36.13773629999999,126.60603619999999,충청남도 서천군청,041-950-4127,,"22,00:00~24:00","23,00:00~24:00","24,00:00~24:00","25,00:00~24:00","26,00:00~24:00"
429,충청남도,관  2리 마을 공용 주차장,노외,충청남도 서천군 비인면관리505,36.1178177,126.61847659999998,충청남도 서천군청,041-950-4127,,"22,00:00~24:00","23,00:00~24:00","24,00:00~24:00","25,00:00~24:00","26,00:00~24:00"
430,충청남도,성산리 마을 공용 주차장,노외,충청남도 서천군 비인면성산리179,36.1425044,126.62715929999999,충청남도 서천군청,041-950-4127,,"22,00:00~24:00","23,00:00~24:00","24,00:00~24:00","25,00:00~24:00","26,00:00~24:00"
431,충청남도,성북1리 마을 공용 주차장,노외,충청남도 서천군 비인면성북리176,36.146657,126.59813249999999,충청남도 서천군청,041-950-4127,,"22,00:00~24:00","23,00:00~24:00","24,00:00~24:00","25,00:00~24:00","26,00:00~24:00"
432,충청남도,남당리 마을 공용 주차장,노외,충청남도 서천군 비인면남당리224,36.1729048,126.6184628,충청남도 서천군청,041-950-4127,,"22,00:00~24:00","23,00:00~24:00","24,00:00~24:00","25,00:00~24:00","26,00:00~24:00"
433,충청남도,춘장대제1주차장,노외,충청남도 서천군 서면도둔리1370,36.1588701,126.53155819999999,충청남도 서천군청,041-950-4127,,"22,00:00~24:00","23,00:00~24:00","24,00:00~24:00","25,00:00~24:00","26,00:00~24:00"
434,충청남도,춘장대제2주차장,노외,충청남도 서천군 서면도둔리1272,36.1588701,126.53155819999999,충청남도 서천군청,041-950-4127,,"22,00:00~24:00","23,00:00~24:00","24,00:00~24:00","25,00:00~24:00","26,00:00~24:00"
435,충청남도,합전주차장,노외,충청남도 서천군 서면신합리123,36.1503056,126.5605013,충청남도 서천군청,041-950-4127,,"22,00:00~24:00","23,00:00~24:00","24,00:00~24:00","25,00:00~24:00","26,00:00~24:00"
436,충청남도,마량주차장,노외,충청남도 서천군 서면마량리299,36.140966600000006,126.4973423,충청남도 서천군청,041-950-4127,,"22,00:00~24:00","23,00:00~24:00","24,00:00~24:00","25,00:00~24:00","26,00:00~24:00"
437,충청남도,내도둔주차장,노외,충청남도 서천군 서면마량리74,36.1366419,126.4939524,충청남도 서천군청,041-950-4127,,"22,00:00~24:00","23,00:00~24:00","24,00:00~24:00","25,00:00~24:00","26,00:00~24:00"
438,충청남도,내도둔주차장,노외,충청남도 서천군 서면마량리85,36.1465976,126.5052199,충청남도 서천군청,041-950-4127,,"22,00:00~24:00","23,00:00~24:00","24,00:00~24:00","25,00:00~24:00","26,00:00~24:00"
439,충청남도,대부사주차장,노외,충청남도 서천군 서면부사리299,36.1664977,126.546048,충청남도 서천군청,041-950-4127,,"22,00:00~24:00","23,00:00~24:00","24,00:00~24:00","25,00:00~24:00","26,00:00~24:00"
440,충청남도,월리주차장,노외,충청남도 서천군 서면월리284,36.1641497,126.56048600000001,충청남도 서천군청,041-950-4127,,"22,00:00~24:00","23,00:00~24:00","24,00:00~24:00","25,00:00~24:00","26,00:00~24:00"
441,충청남도,아산시공영노상주차장,노상,충청남도 아산시 온천동 240,36.7811742,127.0040531,아산시시설관리공단,041-538-1923,연휴내내 무료개방,,"23,00:00~24:00","24,00:00~24:00","25,00:00~24:00","26,00:00~24:00"
442,충청남도,아산시온양온천주차타워,부설,충청남도 아산시 온천동 94-10,36.7849822,126.9980088,아산시시설관리공단,041-538-1923,16일에 한함,,,"24,00:00~24:00",,
443,충청남도,아산시모종동제1공영주차장,노외,충청남도 아산시 모종동 562-4,36.7841499,127.0130412,아산시시설관리공단,041-538-1923,16일에 한함,,,"24,00:00~24:00",,
444,충청남도,충청남도 예산군 예산공립어린이집인근 공영주차장,노외,충청남도 예산군 예산읍 교남길 40,36.6783925,126.85202659999999,충청남도 예산군청,041-339-7694,,"22,00:00~24:00","23,00:00~24:00","24,00:00~24:00","25,00:00~24:00","26,00:00~24:00"
445,충청남도,충청남도 예산군 구)중앙극장 공영주차장,노외,충청남도 예산군 예산읍 예산로 225,36.680086100000004,126.8498231,충청남도 예산군청,041-339-7694,,"22,00:00~24:00","23,00:00~24:00","24,00:00~24:00","25,00:00~24:00","26,00:00~24:00"
446,충청남도,충청남도 예산군 예산읍 공영주차장,노외,충청남도 예산군 예산읍 임성로1번길 7-1,36.678217700000005,126.84895470000001,충청남도 예산군청,041-339-7694,,"22,00:00~24:00","23,00:00~24:00","24,00:00~24:00","25,00:00~24:00","26,00:00~24:00"
447,충청남도,충청남도 예산군 삽교읍 공영주차장,노외,충청남도 예산군 삽교읍 두리3길 33,36.6881311,126.7393139,충청남도 예산군청,041-339-7694,,"22,00:00~24:00","23,00:00~24:00","24,00:00~24:00","25,00:00~24:00","26,00:00~24:00"
448,충청남도,충청남도 예산군 광시면 공영주차장,노외,충청남도 예산군 광시면 예당로 181,36.5513648,126.7735416,충청남도 예산군청,041-339-7694,,"22,00:00~24:00","23,00:00~24:00","24,00:00~24:00","25,00:00~24:00","26,00:00~24:00"
449,충청남도,충청남도 예산군 예산교육지원청 입구 공영주차장,노외,충청남도 예산군 예산읍 역전로126번길 14,36.689679999999996,126.83188670000001,충청남도 예산군청,041-339-7694,,"22,00:00~24:00","23,00:00~24:00","24,00:00~24:00","25,00:00~24:00","26,00:00~24:00"
450,충청남도,충청남도 예산군 예산학생수영장 앞 공영주차장,노외,충청남도 예산군 예산읍 역전로134번길 40,36.6905093,126.8339353,충청남도 예산군청,041-339-7694,,"22,00:00~24:00","23,00:00~24:00","24,00:00~24:00","25,00:00~24:00","26,00:00~24:00"
451,충청남도,충청남도 예산군 덕산면 읍내2리 마을회관 앞 공영주차장,노외,충청남도 예산군 덕산면 봉운로 18,36.7053824,126.671191,충청남도 예산군청,041-339-7694,,"22,00:00~24:00","23,00:00~24:00","24,00:00~24:00","25,00:00~24:00","26,00:00~24:00"
452,충청남도,충청남도 예산군 산성리 고래사냥 옆 공영주차장,노외,충청남도 예산군 예산읍 벚꽃로127번길 16,36.6920845,126.8343926,충청남도 예산군청,041-339-7694,,"22,00:00~24:00","23,00:00~24:00","24,00:00~24:00","25,00:00~24:00","26,00:00~24:00"
453,충청남도,충청남도 예산군 덕산천주교회 앞 공영주차장,노외,충청남도 예산군 덕산면 덕산온천로 436,36.703810600000004,126.668512,충청남도 예산군청,041-339-7694,,"22,00:00~24:00","23,00:00~24:00","24,00:00~24:00","25,00:00~24:00","26,00:00~24:00"
454,충청남도,충청남도 예산군 주교지하차도 옆 공영주차장,노외,충청남도 예산군 예산읍 예산로 26,36.682230600000004,126.82889899999999,충청남도 예산군청,041-339-7694,,"22,00:00~24:00","23,00:00~24:00","24,00:00~24:00","25,00:00~24:00","26,00:00~24:00"
455,충청남도,충청남도 예산군 덕산 또순네 식당 앞 공영주차장,노외,충청남도 예산군 예산읍 봉운로 25,36.678645700000004,126.8456274,충청남도 예산군청,041-339-7694,,"22,00:00~24:00","23,00:00~24:00","24,00:00~24:00","25,00:00~24:00","26,00:00~24:00"
456,충청남도,충청남도 예산군 백제식당뒤 공영주차장,노외,충청남도 예산군 예산읍 천변로 202-1,36.6790411,126.8512628,충청남도 예산군청,041-339-7694,,"22,00:00~24:00","23,00:00~24:00","24,00:00~24:00","25,00:00~24:00","26,00:00~24:00"
457,충청남도,충청남도 예산군 예산공판장 옆 공영주차장,노외,충청남도 예산군 예산읍 임성로 38,36.6816028,126.8496405,충청남도 예산군청,041-339-7694,,"22,00:00~24:00","23,00:00~24:00","24,00:00~24:00","25,00:00~24:00","26,00:00~24:00"
458,충청남도,충청남도 예산군 예산 치안센터뒤 공영주차장,노외,충청남도 예산군 예산읍 예산로194번길 21,36.6794456,126.8484498,충청남도 예산군청,041-339-7694,,"22,00:00~24:00","23,00:00~24:00","24,00:00~24:00","25,00:00~24:00","26,00:00~24:00"
459,충청남도,충청남도 예산군 군청앞진도화원앞 공영주차장,노외,충청남도 예산군 예산읍 사직로 20,36.68120820000001,126.8484392,충청남도 예산군청,041-339-7694,,"22,00:00~24:00","23,00:00~24:00","24,00:00~24:00","25,00:00~24:00","26,00:00~24:00"
460,충청남도,충청남도 예산군 우방아파트앞 공영주차장,노외,충청남도 예산군 예산읍 벚꽃로 149-7,36.6936043,126.8358233,충청남도 예산군청,041-339-7694,,"22,00:00~24:00","23,00:00~24:00","24,00:00~24:00","25,00:00~24:00","26,00:00~24:00"
461,충청남도,충청남도 예산군 금오초교후문 공영주차장,노외,충청남도 예산군 예산읍 역전로134번길 33,36.6908304,126.83353340000001,충청남도 예산군청,041-339-7694,,"22,00:00~24:00","23,00:00~24:00","24,00:00~24:00","25,00:00~24:00","26,00:00~24:00"
462,충청남도,충청남도 예산군 대회리 쌈지주차장,노외,충청남도 예산군 예산읍 관양산길 23-8,36.6754515,126.8488024,충청남도 예산군청,041-339-7694,,"22,00:00~24:00","23,00:00~24:00","24,00:00~24:00","25,00:00~24:00","26,00:00~24:00"
463,충청남도,충청남도 예산군 예산리 쌈지주차장,노외,충청남도 예산군 예산읍 신흥길35번길 8-2 ,36.6779932,126.84587250000001,충청남도 예산군청,041-339-7694,,"22,00:00~24:00","23,00:00~24:00","24,00:00~24:00","25,00:00~24:00","26,00:00~24:00"
464,충청남도,충청남도 예산군 신례원 공영주차장,노외,충청남도  예산군 예산읍 신례원로 218,36.7274718,126.84641200000002,충청남도 예산군청,041-339-7694,,"22,00:00~24:00","23,00:00~24:00","24,00:00~24:00","25,00:00~24:00","26,00:00~24:00"
465,충청남도,충청남도 홍성군청,노상,충청남도 홍성군 홍성읍 대교리 457,36.6009645,126.66870359999999,충청남도 홍성군 보훈회관관리협의회,041-632-4337,,,"23,00:00~24:00","24,00:00~24:00",,
466,충청남도,충청남도 홍성군청,노상,충청남도 홍성군 홍성읍 대교리 95-4,36.601495799999995,126.671093,충청남도 홍성군 보훈회관관리협의회,041-632-4337,,,"23,00:00~24:00","24,00:00~24:00",,
467,충청남도,충청남도 홍성군청,노외,충청남도 홍성군 홍성읍 오관리 86,36.6019042,126.6618452,충청남도 홍성군 보훈회관관리협의회,041-632-4337,,,"23,00:00~24:00","24,00:00~24:00",,
468,충청남도,충청남도 홍성군청,노외,충청남도 홍성군 홍성읍 대교리 405-2,36.6028309,126.66766340000001,충청남도 홍성군 홍천마을회,041-634-4606,,,"23,00:00~24:00","24,00:00~24:00",,
469,충청남도,충청남도 홍성군청,노외,충청남도 홍성군 홍성읍 오관리 366-4,36.5990255,126.66535060000001,충청남도 홍성군 홍천마을회,041-634-4606,,,"23,00:00~24:00","24,00:00~24:00",,
470,충청남도,충청남도 홍성군청,노외,충청남도 홍성군 홍성읍 오관리 460-2,36.598605,126.66393290000002,충청남도 홍성군 홍천마을회,041-634-4606,,,"23,00:00~24:00","24,00:00~24:00",,
471,충청남도,충청남도 홍성군청,노외,충청남도 홍성군 홍성읍 문화로 141,36.6000714,126.6629889,홍성군 보훈회관관리협의회,041-632-4337,,,"23,00:00~24:00","24,00:00~24:00",,
472,충청남도,천안시 두정공원 주차장,노외,충청남도 천안시 서북구 두정동 1366,36.830905,127.1390619,충청남도 천안시,041-529-5157/5210,,,"23,00:00~24:00","24,00:00~24:00","25,00:00~24:00","26,00:00~24:00"
473,충청남도,천안시 두정동 공영주차장,노외,충청남도 천안시 서북구 두정동 91-1,36.8319609,127.15042530000001,충청남도 천안시,041-529-5157/5210,,,"23,00:00~24:00","24,00:00~24:00","25,00:00~24:00","26,00:00~24:00"
474,충청남도,천안시 문성동 공영주차장,노외,충청남도 천안시 동남구 문화로 15,36.81094119999999,127.15028329999998,충청남도 천안시,041-529-5157/5210,,,"23,00:00~24:00","24,00:00~24:00","25,00:00~24:00","26,00:00~24:00"
475,충청남도,천안시 불당동 주차빌딩,노외,충청남도 천안시 서북구 검은들1길 15,36.8111909,127.10951580000001,충청남도 천안시,041-529-5157/5210,,,"23,00:00~24:00","24,00:00~24:00","25,00:00~24:00","26,00:00~24:00"
476,충청남도,천안시 불당동 공영주차장,노외,충청남도 천안시 서북구 불당동 735,36.810225700000004,127.11070929999998,충청남도 천안시,041-529-5157/5210,,,"23,00:00~24:00","24,00:00~24:00","25,00:00~24:00","26,00:00~24:00"
477,충청남도,천안시 불당초등학교 ,노외,충청남도 천안시 서북구 불당동 910,36.8052032,127.10813950000001,충청남도 천안시,041-529-5157/5210,,,"23,00:00~24:00","24,00:00~24:00","25,00:00~24:00","26,00:00~24:00"
478,충청남도,천안시 불당중학교 ,노외,충청남도 천안시 서북구 불당동 970,36.8037354,127.1085252,충청남도 천안시,041-529-5157/5210,,,"23,00:00~24:00","24,00:00~24:00","25,00:00~24:00","26,00:00~24:00"
479,충청남도,천안시 삼거리공원,노외,충청남도 천안시 동남구 충절로 410,36.783702399999996,127.168094,충청남도 천안시,041-529-5157/5210,,,"23,00:00~24:00","24,00:00~24:00","25,00:00~24:00","26,00:00~24:00"
480,충청남도,천안시 3공단,노외,충청남도 천안시 서북구 성성동 511-9,36.838561799999994,127.11678529999999,충청남도 천안시,041-529-5157/5210,,,"23,00:00~24:00","24,00:00~24:00","25,00:00~24:00","26,00:00~24:00"
481,충청남도,천안시 성정C지구,노외,충청남도 천안시 서북구 성정동 175-1.2.9,36.812828700000004,127.1456875,충청남도 천안시,041-529-5157/5210,,,"23,00:00~24:00","24,00:00~24:00","25,00:00~24:00","26,00:00~24:00"
482,충청남도,천안시 성정현대아파트 ,노외,"충청남도 천안시 서북구 성정동 438-3,544-1번지",36.8284886,127.13353049999999,충청남도 천안시,041-529-5157/5210,,,"23,00:00~24:00","24,00:00~24:00","25,00:00~24:00","26,00:00~24:00"
483,충청남도,천안시 신방통정지구 회전 교차로,노외,충청남도 천안시 동남구 신방동 901,36.7916091,127.1296597,충청남도 천안시,041-529-5157/5210,,,"23,00:00~24:00","24,00:00~24:00","25,00:00~24:00","26,00:00~24:00"
484,충청남도,천안시 신부홈마트 앞,노외,충청남도 천안시 동남구 신부동 331-43외2,36.821220700000005,127.15482140000002,충청남도 천안시,041-529-5157/5210,,,"23,00:00~24:00","24,00:00~24:00","25,00:00~24:00","26,00:00~24:00"
485,충청남도,천안시 신부동 공영주차장,노외,충청남도 천안시 동남구 터미널8길 7,36.8222344,127.1579813,충청남도 천안시,041-529-5157/5210,,,"23,00:00~24:00","24,00:00~24:00","25,00:00~24:00","26,00:00~24:00"
486,충청남도,천안시 신안초등학교 ,노외,충청남도 천안시 동남구 신부동 77-26외6,36.813998600000005,127.1601371,충청남도 천안시,041-529-5157/5210,,,"23,00:00~24:00","24,00:00~24:00","25,00:00~24:00","26,00:00~24:00"
487,충청남도,천안시 혜성산부인과 앞,노외,충청남도 천안시 서북구 쌍용동 1178,36.80102410000001,127.13096509999998,충청남도 천안시,041-529-5157/5210,,,"23,00:00~24:00","24,00:00~24:00","25,00:00~24:00","26,00:00~24:00"
488,충청남도,천안시 열린약국 ,노외,충청남도 천안시 서북구 쌍용동 1299,36.8003095,127.1256807,충청남도 천안시,041-529-5157/5210,,,"23,00:00~24:00","24,00:00~24:00","25,00:00~24:00","26,00:00~24:00"
489,충청남도,천안시 방아다리공원,노외,충청남도 천안시 서북구 쌍용동 1568,36.7927709,127.11563729999999,충청남도 천안시,041-529-5157/5210,,,"23,00:00~24:00","24,00:00~24:00","25,00:00~24:00","26,00:00~24:00"
490,충청남도,천안시 쌍용고등학교,노외,충청남도 천안시 서북구 쌍용동 2074,36.78753270000001,127.114223,충청남도 천안시,041-529-5157/5210,,,"23,00:00~24:00","24,00:00~24:00","25,00:00~24:00","26,00:00~24:00"
491,충청남도,천안시 도시개발사업,노외,충청남도 천안시 서북구 쌍용동 2114,36.7972383,127.1276418,충청남도 천안시,041-529-5157/5210,,,"23,00:00~24:00","24,00:00~24:00","25,00:00~24:00","26,00:00~24:00"
492,충청남도,천안시 일성능수아파트,노외,충청남도 천안시 서북구 쌍용동 655,36.7979298,127.1225354,충청남도 천안시,041-529-5157/5210,,,"23,00:00~24:00","24,00:00~24:00","25,00:00~24:00","26,00:00~24:00"
493,충청남도,천안시 단국대학교 앞,노외,충청남도 천안시 동남구 안서동 526-39,36.8374685,127.1732635,충청남도 천안시,041-529-5157/5210,,,"23,00:00~24:00","24,00:00~24:00","25,00:00~24:00","26,00:00~24:00"
494,충청남도,천안시 천안역 서부광장,노외,충청남도 천안시 서북구 서부역9로 38,36.810470200000005,127.1420982,충청남도 천안시,041-529-5157/5210,,,"23,00:00~24:00","24,00:00~24:00","25,00:00~24:00","26,00:00~24:00"
495,충청남도,천안시 공영주차장,노외,충청남도 천안시 동남구 청수11로 12,36.7943256,127.15331850000001,충청남도 천안시,041-529-5157/5210,,,"23,00:00~24:00","24,00:00~24:00","25,00:00~24:00","26,00:00~24:00"
496,충청남도,천안시 백석문화센터,노외,충청남도 천안시 동남구 청당동 567,36.7800992,127.1537493,충청남도 천안시,041-529-5157/5210,,,"23,00:00~24:00","24,00:00~24:00","25,00:00~24:00","26,00:00~24:00"
497,충청남도,천안시 천안시청,노외,충청남도 천안시 서북구 번영로 156,36.8156927,127.1136868,충청남도 천안시,041-529-5157/5210,,,"23,00:00~24:00","24,00:00~24:00","25,00:00~24:00","26,00:00~24:00"
498,충청남도,천안시 서북구청,노외,충청남도 천안시 서북구 성거읍 봉주로 75,36.878508200000006,127.15509579999998,충청남도 천안시,041-529-5157/5210,,,"23,00:00~24:00","24,00:00~24:00","25,00:00~24:00","26,00:00~24:00"
499,충청남도,공주시 웅진로1 공영주차장,노상,충청남도 공주시 웅진동 교촌교 다리,36.1492138,127.3792754,충청남도 공주시청,041-881-7632,,,"23,00:00~24:00","24,00:00~24:00","25,00:00~24:00","26,00:00~24:00"
500,충청남도,공주시 웅진로2 공영주차장,노상,충청남도 공주시 웅진동 제일약국 앞,36.4595886,127.12456920000001,충청남도 공주시청,041-881-7633,,,"23,00:00~24:00","24,00:00~24:00","25,00:00~24:00","26,00:00~24:00"
501,충청남도,공주시 제민천1길 공영주차장,노상,충청남도 공주시 웅진동 명도목재 앞,36.4688377,127.13729,충청남도 공주시청,041-881-7634,,,"23,00:00~24:00","24,00:00~24:00","25,00:00~24:00","26,00:00~24:00"
502,충청남도,공주시 신관동 공원주차장,노외,충청남도 공주시 신관동 639-1,36.4726423,127.13584490000001,충청남도 공주시청,041-881-7635,,,"23,00:00~24:00","24,00:00~24:00","25,00:00~24:00","26,00:00~24:00"
503,충청남도,공주시 신관동 공영주차장(주차빌딩),노외,충청남도 공주시 신관동 639-3,36.47210070000001,127.13547040000002,충청남도 공주시청,041-881-7636,,,"23,00:00~24:00","24,00:00~24:00","25,00:00~24:00","26,00:00~24:00"
504,충청남도,공주시 신관동 공영주차장,노외,충청남도 공주시 신관동 590-1,36.4717137,127.12921709999999,충청남도 공주시청,041-881-7637,,,"23,00:00~24:00","24,00:00~24:00","25,00:00~24:00","26,00:00~24:00"
505,충청남도,공주시 중동 봉산길 공영주차장,노외,충청남도 공주시 중동 147-89,36.455703,127.1232246,충청남도 공주시청,041-881-6665,,,"23,00:00~24:00","24,00:00~24:00","25,00:00~24:00","26,00:00~24:00"
506,충청남도,공주시 산성시장 공영주차장,노외,충청남도 공주시 신관동 190-1,36.4697515,127.1366324,충청남도 공주시청,041-856-5427,,,,"24,00:00~24:00","25,00:00~24:00","26,00:00~24:00"
507,충청남도,궁주시 중동 공영 주차타워,노외,충청남도 공주시 중동 63,36.4548898,127.125881,충청남도 공주시청,041-854-0036,,,,"24,00:00~24:00","25,00:00~24:00","26,00:00~24:00"
508,충청남도,대천해수욕장 1지구(제1주차장),노외,충청남도 보령시 신흑동 2016,36.32230379999999,126.52638929999999,충청남도 보령시,041-930-3378,상시무료,"22,00:00~24:00","23,00:00~24:00","24,00:00~24:00","25,00:00~24:00","26,00:00~24:00"
509,충청남도,"대천해수욕장 1지구(제2,3주차장)",노외,충청남도 보령시 신흑동 1431 외,36.32230379999999,126.52638929999999,충청남도 보령시,041-930-3378,상시무료,"22,00:00~24:00","23,00:00~24:00","24,00:00~24:00","25,00:00~24:00","26,00:00~24:00"
510,충청남도,대천해수욕장 2지구(제1주차장),노외,충청남도 보령시 신흑동 2212-1,36.32230379999999,126.52638929999999,충청남도 보령시,041-930-3378,상시무료,"22,00:00~24:00","23,00:00~24:00","24,00:00~24:00","25,00:00~24:00","26,00:00~24:00"
511,충청남도,대천해수욕장 2지구(제2주차장),노외,충청남도 보령시 신흑동 2204-1 외,36.32230379999999,126.52638929999999,충청남도 보령시,041-930-3378,상시무료,"22,00:00~24:00","23,00:00~24:00","24,00:00~24:00","25,00:00~24:00","26,00:00~24:00"
512,충청남도,대천해수욕장 3지구(제1주차장),노외,충청남도 보령시 신흑동 2285 외,36.32230379999999,126.52638929999999,충청남도 보령시,041-930-3378,상시무료,"22,00:00~24:00","23,00:00~24:00","24,00:00~24:00","25,00:00~24:00","26,00:00~24:00"
513,충청남도,대천해수욕장 3지구(제2주차장),노외,충청남도 보령시 신흑동 2262,36.32230379999999,126.52638929999999,충청남도 보령시,041-930-3378,상시무료,"22,00:00~24:00","23,00:00~24:00","24,00:00~24:00","25,00:00~24:00","26,00:00~24:00"
514,충청남도,대천해수욕장 3지구(제3주차장),노외,충청남도 보령시 신흑동 2279,36.32230379999999,126.52638929999999,충청남도 보령시,041-930-3378,상시무료,"22,00:00~24:00","23,00:00~24:00","24,00:00~24:00","25,00:00~24:00","26,00:00~24:00"
515,충청남도,대천해수욕장 3지구(제4주차장),노외,충청남도 보령시 신흑동 2293,36.32230379999999,126.52638929999999,충청남도 보령시,041-930-3378,상시무료,"22,00:00~24:00","23,00:00~24:00","24,00:00~24:00","25,00:00~24:00","26,00:00~24:00"
516,충청남도,대천해수욕장 3지구(제5주차장),노외,충청남도 보령시 신흑동 2252,36.32230379999999,126.52638929999999,충청남도 보령시,041-930-3378,상시무료,"22,00:00~24:00","23,00:00~24:00","24,00:00~24:00","25,00:00~24:00","26,00:00~24:00"
517,충청남도,무창포해수욕장 제1주차장,노외,충청남도 보령시 웅천읍 관당리 795,36.2464602,126.53841000000001,충청남도 보령시,041-930-3378,상시무료,"22,00:00~24:00","23,00:00~24:00","24,00:00~24:00","25,00:00~24:00","26,00:00~24:00"
518,충청남도,무창포해수욕장 제2주차장,노외,충청남도 보령시 웅천읍 관당리 798-2,36.24586729999999,126.53871370000002,충청남도 보령시,041-930-3378,상시무료,"22,00:00~24:00","23,00:00~24:00","24,00:00~24:00","25,00:00~24:00","26,00:00~24:00"
519,충청남도,무창포해수욕장 제3주차장,노외,충청남도 보령시 웅천읍 관당리 806-1,36.2423857,126.5362531,충청남도 보령시,041-930-3378,상시무료,"22,00:00~24:00","23,00:00~24:00","24,00:00~24:00","25,00:00~24:00","26,00:00~24:00"
520,충청남도,무창포해수욕장 제4주차장,노외,충청남도 보령시 웅천읍 관당리 826-1,36.2402419,126.53486029999999,충청남도 보령시,041-930-3378,상시무료,"22,00:00~24:00","23,00:00~24:00","24,00:00~24:00","25,00:00~24:00","26,00:00~24:00"
521,충청남도,무창포해수욕장 제5주차장,노외,충청남도 보령시 웅천읍 독산리 784-3,36.2383193,126.5317468,충청남도 보령시,041-930-3378,상시무료,"22,00:00~24:00","23,00:00~24:00","24,00:00~24:00","25,00:00~24:00","26,00:00~24:00"
522,충청남도,무창포해수욕장 제6주차장,노외,충청남도 보령시 웅천읍 독산리 784-2,36.238631299999994,126.5310257,충청남도 보령시,041-930-3378,상시무료,"22,00:00~24:00","23,00:00~24:00","24,00:00~24:00","25,00:00~24:00","26,00:00~24:00"
523,충청남도,대천항 주차장,노외,충청남도 보령시 신흑동 2240-7 외,36.32230379999999,126.52638929999999,충청남도 보령시,041-930-3378,상시무료,"22,00:00~24:00","23,00:00~24:00","24,00:00~24:00","25,00:00~24:00","26,00:00~24:00"
524,충청남도,여객선터미널주차장,노외,충청남도 보령시 신흑동 2242,36.32230379999999,126.52638929999999,충청남도 보령시,041-930-3970,상시무료,"22,00:00~24:00","23,00:00~24:00","24,00:00~24:00","25,00:00~24:00","26,00:00~24:00"
525,충청남도,하상주차장,노외,충청남도 보령시 대천천 일원,36.3646468,126.61412079999998,충청남도 보령시,041-930-3378,상시무료,"22,00:00~24:00","23,00:00~24:00","24,00:00~24:00","25,00:00~24:00","26,00:00~24:00"
526,충청남도,중앙시장주차장,노외,충청남도 보령시 대천동 331-52,36.3513281,126.5938689,충청남도 보령시,041-930-4562,연휴일부만개방,,,"24,00:00~24:00","25,00:00~24:00","26,00:00~24:00"
527,충청남도,동부시장주차장,노외,충청남도 보령시 대천동 200-1,36.3495676,126.5966611,충청남도 보령시,041-930-4562,연휴일부만개방,,,"24,00:00~24:00","25,00:00~24:00","26,00:00~24:00"
528,충청남도,중앙시장(3주차장),노외,충청남도 보령시 대천동 335-11,36.3502523,126.5928154,충청남도 보령시,041-930-4562,연휴일부만개방,,,"24,00:00~24:00","25,00:00~24:00","26,00:00~24:00"
529,충청남도,웅천주차공원 제1주차장,노외,충청남도 보령시 웅천읍 대창리 348-1,36.2323765,126.60005100000001,충청남도 보령시,041-930-3378,상시무료,"22,00:00~24:00","23,00:00~24:00","24,00:00~24:00","25,00:00~24:00","26,00:00~24:00"
530,충청남도,웅천주차공원 제2주차장,노외,충청남도 보령시 웅천읍 대창리 436-33,36.233076700000005,126.6021309,충청남도 보령시,041-930-3378,상시무료,"22,00:00~24:00","23,00:00~24:00","24,00:00~24:00","25,00:00~24:00","26,00:00~24:00"
531,충청남도,시민행복주차장,노외,충청남도 보령시 대천동 618-226,36.3504987,126.59836899999999,충청남도 보령시,041-930-3378,"평일유료,공휴일무료",,"23,00:00~24:00","24,00:00~24:00","25,00:00~24:00","26,00:00~24:00"
532,충청남도,대천2동 포켓주차장,노외,충청남도 보령시 대천동 406-6 ,36.3536336,126.5912105,충청남도 보령시,041-930-3378,상시무료,"22,00:00~24:00","23,00:00~24:00","24,00:00~24:00","25,00:00~24:00","26,00:00~24:00"
533,충청남도,대천농협 한내지소뒤주차장,노외,충청남도 보령시 대천동 618-60,36.34967929999999,126.59726850000001,충청남도 보령시,041-930-3378,"평일유료,공휴일무료",,"23,00:00~24:00","24,00:00~24:00","25,00:00~24:00","26,00:00~24:00"
534,충청남도,노상주차장,노상,충청남도 보령시 중앙로 일원,36.352644500000004,126.59089909999999,충청남도 보령시,041-930-3378,"평일유료,공휴일무료",,"23,00:00~24:00","24,00:00~24:00","25,00:00~24:00","26,00:00~24:00"
535,충청남도,충청남도 당진시청,부설,충청남도 당진시 당진시장서길 13,36.8899143,126.6297882,충청남도 당진시청,041-350-4543,,,"23,00:00~24:00","24,00:00~24:00","25,00:00~24:00","26,00:00~24:00"
536,충청남도,충청남도 당진시청,부설,충청남도 당진시 시장중앙길 148-3,36.8915071,126.6297642,충청남도 당진시청,041-350-4543,,,"23,00:00~24:00","24,00:00~24:00","25,00:00~24:00","26,00:00~24:00"
537,충청남도,충청남도 당진시청,노상,충청남도 당진시 당진중앙2로 134 앞,36.894701899999994,126.63198909999998,충청남도 당진시청,041-350-4543,,,"23,00:00~24:00","24,00:00~24:00","25,00:00~24:00","26,00:00~24:00"
538,충청남도,충청남도 당진시청,노외,충청남도 당진시 당진중앙1로 153,36.8960769,126.631978,충청남도 당진시청,041-350-4543,,,"23,00:00~24:00","24,00:00~24:00","25,00:00~24:00","26,00:00~24:00"
539,충청남도,충청남도 당진시청,노외,충청남도 당진시 당진중앙1로 79,36.8936902,126.62903859999999,충청남도 당진시청,041-350-4543,,,"23,00:00~24:00","24,00:00~24:00","25,00:00~24:00","26,00:00~24:00"
540,충청남도,충청남도 당진시청,노외,충청남도 당진시 밤절로 149,36.902938299999995,126.64569350000001,충청남도 당진시청,041-350-4543,,,"23,00:00~24:00","24,00:00~24:00","25,00:00~24:00","26,00:00~24:00"
541,충청남도,충청남도 당진시청,노상,충청남도 당진시 당진중앙2로 87앞,36.8935036,126.62980929999999,충청남도 당진시청,041-350-4543,,,"23,00:00~24:00","24,00:00~24:00","25,00:00~24:00","26,00:00~24:00"
542,충청남도,남문공영주차장 ,노외,충청남도 태안군 남문리 156-3,36.7515611,126.2975131,충남 태안군 ,041-670-2222,,"22,00:00~00:00","23,00:00~00:00","24,00:00~00:00","25,00:00~00:00","26,00:00~00:00"
543,충청남도,구터미널 공영주차장,노외,충청남도 태안군 남문리 573-1,36.7550735,126.2945541,충남 태안군 ,041-670-2222,,"22,00:00~00:00","23,00:00~00:00","24,00:00~00:00","25,00:00~00:00","26,00:00~00:00"
544,충청남도,동문공영주차장 ,노외 ,충청남도 태안군 동문리 481-1,36.75426829999999,126.2983524,충남 태안군 ,041-670-2222,,"22,00:00~00:00","23,00:00~00:00","24,00:00~00:00","25,00:00~00:00","26,00:00~00:00"
545,충청남도,공영주차장,노외,충청남도 서산시 성연면 평리(경로당옆),36.842349799999994,126.4465746,충청남도 서산시,041-660-2597,,"22,00:00~24:00","23,00:00~24:00","24,00:00~24:00","25,00:00~24:00","26,00:00~24:00"
546,충청남도,공영주차장,노외,충청남도 서산시 운산면 용장리(역천),36.8118421,126.5831676,충청남도 서산시,041-660-2597,,"22,00:00~24:00","23,00:00~24:00","24,00:00~24:00","25,00:00~24:00","26,00:00~24:00"
547,충청남도,공영주차장,노외,충청남도 서산시 부석면 취평리 531-4,36.7186982,126.39695659999998,충청남도 서산시,041-660-2597,,"22,00:00~24:00","23,00:00~24:00","24,00:00~24:00","25,00:00~24:00","26,00:00~24:00"
548,충청남도,공영주차장,노외,충청남도 서산시 팔봉면 어송리,36.801011700000004,126.36267190000001,충청남도 서산시,041-660-2597,,"22,00:00~24:00","23,00:00~24:00","24,00:00~24:00","25,00:00~24:00","26,00:00~24:00"
549,충청남도,공영주차장,노외,충청남도 서산시 지곡면 화천리1301-71,36.866848700000006,126.43525190000001,충청남도 서산시,041-660-2597,,"22,00:00~24:00","23,00:00~24:00","24,00:00~24:00","25,00:00~24:00","26,00:00~24:00"
550,충청남도,공영주차장,노외,충청남도 서산시 운산면 용장리(역천),36.8118421,126.5831676,충청남도 서산시,041-660-2597,,"22,00:00~24:00","23,00:00~24:00","24,00:00~24:00","25,00:00~24:00","26,00:00~24:00"
551,충청남도,공영주차장,노외,충청남도 서산시 고북면 기포리311,36.666227899999996,126.5324953,충청남도 서산시,041-660-2597,,"22,00:00~24:00","23,00:00~24:00","24,00:00~24:00","25,00:00~24:00","26,00:00~24:00"
552,충청남도,공영주차장,노외,충청남도 서산시 고북면 가구리 699,36.66428450000001,126.5366249,충청남도 서산시,041-660-2597,,"22,00:00~24:00","23,00:00~24:00","24,00:00~24:00","25,00:00~24:00","26,00:00~24:00"
553,충청남도,공영주차장,노외,충청남도 서산시 동문동140-6(씨엔비극장 앞),36.77874449999999,126.4656143,충청남도 서산시,041-660-2597,,"22,00:00~24:00","23,00:00~24:00","24,00:00~24:00","25,00:00~24:00","26,00:00~24:00"
554,충청남도,공영주차장,노외,"충청남도 서산시 죽성동79-2,79-17(죽성삼성A 앞)",36.7459588,126.44759909999999,충청남도 서산시,041-660-2597,,"22,00:00~24:00","23,00:00~24:00","24,00:00~24:00","25,00:00~24:00","26,00:00~24:00"
